local,tipo,denominacion,latitud,longitud,elevacion,referencia,condicion,trafico,provincia
ACB,Aeródromo,CORONEL BOGADO/AGROSERVICIOS,-60.57066,-33.27226,44,Coronel Bogado,PRIVADO,Nacional,SANTA FÉ
ACH,Aeródromo,GENERAL ACHA,-64.61351,-37.40164,277,General Acha,PUBLICO,Nacional,LA PAMPA
ACM,Aeródromo,ARRECIFES/LA CURA MALAL,-60.1417,-34.07574,37,Arrecifes,PRIVADO,Nacional,BUENOS AIRES
ADO,Aeródromo,PUERTO DESEADO,-65.9041,-47.73511,82,Puerto Deseado,PUBLICO,Nacional,SANTA CRUZ
ADT,Aeródromo,BANDERA/AGROSERVICIOS DOÑA TERESA,-62.26462,-28.85541,75,Bandera,PRIVADO,Nacional,SANTIAGO DEL ESTERO
ADU,Aeródromo,BANDERA/DUTTO,-62.23812,-28.86691,87,Bandera,PRIVADO,Nacional,SANTIAGO DEL ESTERO
AER,Aeródromo,BUENOS AIRES/AEROPARQUE J. NEWBERY,-58.41638889,-34.55888889,5.6,Ciudad de Buenos Aires,PUBLICO,Internacional,CIUDAD AUTÓNOMA DE BUENOS AIRES
AGI,Aeródromo,PIEDRA DEL ÁGUILA,-70.01075,-40.19232,649,Piedra del Águila,PRIVADO,Nacional,NEUQUÉN
AGR,Aeródromo,ALTA GRACIA,-64.39388889,-31.65111111,533,Alta Gracia,PUBLICO,Nacional,CÓRDOBA
AII,Aeródromo,CHACABUCO/LAS DOS A,-60.51661,-34.81116,60,Chacabuco,PRIVADO,Nacional,BUENOS AIRES
AJA,Aeródromo,LA LAJA,-68.47305556,-31.35138889,650,La Laja,PRIVADO,Nacional,SAN JUAN
ALC,Aeródromo,AMEGHINO/LA CHACRA,-62.52293,-34.80942,109,Florentino Ameghino,PRIVADO,Nacional,BUENOS AIRES
ALL,Aeródromo,ALLEN,-67.80277778,-38.95833333,290,Allen,PRIVADO,Nacional,RÍO NEGRO
ALR,Aeródromo,ALEJANDRO ROCA,-63.73,-33.34861111,210,Alejandro Roca,PRIVADO,Nacional,CÓRDOBA
ALT,Aeródromo,CRUZ ALTA,-61.83694444,-33.00777778,97,Cruz Alta,PUBLICO,Nacional,CÓRDOBA
ALV,Aeródromo,ALVEAR/AGROALVEAR SRL,-60.66682,-33.06853,32,Alvear,PRIVADO,Nacional,SANTA FÉ
AMA,Aeródromo,ROBERTS/LA AMALIA,-62.01657,-35.10043,100,Roberts,PRIVADO,Nacional,BUENOS AIRES
AME,Aeródromo,AMEGHINO/SIGFRIDO ROHR,-62.46787,-34.83057,110,Florentino Ameghino,PRIVADO,Nacional,BUENOS AIRES
AMG,Aeródromo,AMEGHINO,-62.48266,-34.84541,110,Florentino Ameghino,PRIVADO,Nacional,BUENOS AIRES
ANA,Aeródromo,PARANÁ/AEROCLUB,-60.37388889,-31.75777778,60,La Picada,PUBLICO,Nacional,ENTRE RÍOS
AND,Aeródromo,ANDALGALÁ,-66.34277778,-27.62805556,900,Andalgalá,PRIVADO,Nacional,CATAMARCA
APO,Aeródromo,APÓSTOLES,-55.76555556,-27.90333333,117,Apóstoles,PRIVADO,Nacional,MISIONES
ARB,Aeródromo,ARRIBEÑOS,-61.38666667,-34.22194444,82,Arribeños,PUBLICO,Nacional,BUENOS AIRES
ARS,Aeródromo,ALTO RÍO SENGUERR/D. C. SZLAPELIS,-70.81282,-45.0132,697,Alto Río Senguerr,PUBLICO,Nacional,CHUBUT
ARY,Aeródromo,ARROYITO/ARCOR,-63.005,-31.42222222,148,Arroyito,PUBLICO,Nacional,CÓRDOBA
ATE,Aeródromo,ZÁRATE,-59.08266,-34.11829,26,Zárate,PUBLICO,Nacional,BUENOS AIRES
ATN,Aeródromo,TRENQUE LAUQUEN/LA ARGENTINA,-62.70635,-35.99773,95,Trenque Lauquen,PRIVADO,Nacional,BUENOS AIRES
AUL,Aeródromo,AMEGHINO/AUGUSTO LEGUIZAMÓN,-62.47709,-34.81797,109,Florentino Ameghino,PRIVADO,Nacional,BUENOS AIRES
AVA,Aeródromo,ALVEAR/AEROPARQUE ROSARIO,-60.59756,-33.04691,26,Alvear,PUBLICO,Nacional,SANTA FÉ
AVL,Aeródromo,AVELLANEDA/PRESIDENTE AVELLANEDA,-59.6575,-29.10611111,45,Avellaneda,PUBLICO,Nacional,SANTA FÉ
AYA,Aeródromo,AYACUCHO,-58.47305556,-37.1625,77,Ayacucho,PUBLICO,Nacional,BUENOS AIRES
BAD,Aeródromo,BERÓN DE ASTRADA/DINALUCA S.A.,-57.64416667,-27.38277778,67,Berón de Astrada,PRIVADO,Nacional,CORRIENTES
BAI,Aeródromo,LAGO BUENOS AIRES,-70.94805556,-46.57611111,387,Perito Moreno,PRIVADO,Nacional,SANTA CRUZ
BAL,Aeródromo,BALCARCE,-58.34361111,-37.91527778,120,Balcarce,PUBLICO,Nacional,BUENOS AIRES
BAR,Aeródromo,SAN CARLOS DE BARILOCHE,-71.15777778,-41.15111111,846,San Carlos de Bariloche,PUBLICO,Internacional,RÍO NEGRO
BAS,Aeródromo,BASAVILBASO,-58.8816,-32.3616,60,Basavilbaso,PUBLICO,Nacional,ENTRE RÍOS
BCA,Aeródromo,BAHÍA BLANCA/COMANDANTE ESPORA,-62.15333333,-38.7275,75,Bahía Blanca,PUBLICO,Nacional,BUENOS AIRES
BDO,Aeródromo,BARADERO,-59.49279,-33.82122,29,Baradero,PUBLICO,Nacional,BUENOS AIRES
BDR,Aeródromo,BAHÍA DORADA,-65.08222222,-41.84277778,36,Sierra Grande,PRIVADO,Nacional,RÍO NEGRO
BEL,Aeródromo,BELL VILLE,-62.70194444,-32.65833333,131,Bell Ville,PUBLICO,Nacional,CÓRDOBA
BEX,Aeródromo,BARADERO,-59.46911,-33.85864,26,Pueblo Alsina,PRIVADO,Nacional,BUENOS AIRES
BHB,Aeródromo,BAHÍA BLANCA/AEROCLUB,-62.3525,-38.67194444,15,Bahía Blanca,PRIVADO,Nacional,BUENOS AIRES
BHT,Aeródromo,BRAGADO/HARAS TRELLIRIS,-60.57884,-35.33147,60,Bragado,PRIVADO,Nacional,BUENOS AIRES
BIO,Aeródromo,EL TURBIO/28 DE NOVIEMBRE,-72.22034,-51.60502,273,El Turbio,PUBLICO,Nacional,SANTA CRUZ
BLA,Aeródromo,BALCARCE/EA. LA ALBORADA,-58.18833333,-37.46277778,64,Balcarce,PRIVADO,Nacional,BUENOS AIRES
BLC,Aeródromo,BALCARCE/EA. LOS CARDOS,-58.03821,-37.73529,120,Balcarce,PRIVADO,Nacional,BUENOS AIRES
BLE,Aeródromo,BALCARCE/EA. LA ESTRELLA,-58.66611111,-37.55944444,139,Balcarce,PRIVADO,Nacional,BUENOS AIRES
BLL,Aeródromo,MIRAMAR/LAS CORTADERAS,-58.10861111,-38.35472222,16,Mechongue,PRIVADO,Nacional,BUENOS AIRES
BLN,Aeródromo,LONDRES/BELÉN,-67.095,-27.70805556,1200,Belén,PRIVADO,Nacional,CATAMARCA
BLR,Aeródromo,BOLIVAR,-61.07583333,-36.18666667,94,San Carlos de Bolivar,PUBLICO,Nacional,BUENOS AIRES
BMO,Aeródromo,BRAGADO/MALFATO,-60.50555556,-35.15166667,57,Bragado,PRIVADO,Nacional,BUENOS AIRES
BOE,Aeródromo,MORTEROS/AEROBOERO,-62.00809,-30.73091,96,Morteros,PUBLICO,Nacional,CÓRDOBA
BOG,Aeródromo,CORONEL BOGADO/FUMIGACIONES CAMPAGNUCCI,-60.66617,-33.32404,48,Coronel Bogado,PRIVADO,Nacional,SANTA FÉ
BOL,Aeródromo,EL BOLSÓN,-71.53215,-41.94323,348,El Bolsón,PUBLICO,Nacional,RÍO NEGRO
BOM,Aeródromo,BOMBAL/GRAN ANCONA,-61.30323,-33.43852,97,Bombal,PRIVADO,Nacional,SANTA FÉ
BOS,Aeródromo,LOBOS,-59.13666667,-35.21083333,29,Lobos,PUBLICO,Nacional,BUENOS AIRES
BPS,Aeródromo,BRINKMANN/PABLO SIERRA AEROAPLICACIONES,-62.05055556,-30.92944444,100,Brinckmann,PRIVADO,Nacional,CÓRDOBA
BRA,Aeródromo,BRAGADO,-60.48194444,-35.14527778,60,Bragado,PUBLICO,Nacional,BUENOS AIRES
BRF,Aeródromo,BAHÍA BLANCA/LA REFORMA,-63.28722,-38.7305,67,Bahía Blanca,PRIVADO,Nacional,BUENOS AIRES
BRQ,Aeródromo,BUTA RANQUIL/EL PORTÓN,-69.60972222,-37.195,870,Buta Ranquil,PRIVADO,Nacional,NEUQUÉN
BTA,Aeródromo,BELLA VISTA,-59.03805556,-28.52611111,55,Bella Vista,PUBLICO,Nacional,CORRIENTES
BTS,Aeródromo,CORRAL DE BUSTOS,-62.15138889,-33.28138889,120,Corral de Bustos,PRIVADO,Nacional,CÓRDOBA
CAF,Aeródromo,CAFAYATE,-65.93055556,-26.06416667,1639,Cafayate,PRIVADO,Nacional,SALTA
CAL,Aeródromo,CAMPO ARENAL,-66.58638889,-27.07222222,2324,Santa María,PRIVADO,Nacional,CATAMARCA
CAM,Aeródromo,CORRALITO/ALFONSO MENGO,-64.27944444,-32.02444444,545,Corralito,PRIVADO,Nacional,CÓRDOBA
CAT,Aeródromo,CATAMARCA,-65.75111111,-28.59305556,464,San Fernando del Valle de Catamarca,PUBLICO,Nacional,CATAMARCA
CAY,Aeródromo,SAN CAYETANO,-59.63027778,-38.33388889,100,San Cayetano,PRIVADO,Nacional,BUENOS AIRES
CBA,Aeródromo,CÓRDOBA/ING. AER. A. L. V. TARAVELLA,-64.20833333,-31.31,489,Córdoba,PUBLICO,Internacional,CÓRDOBA
CBB,Aeródromo,CAÑADA ROSQUIN/ByB SERVICIOS AGROPECUARIOS,-61.63196,-32.11159,73,Cañada Rosquín,PRIVADO,Nacional,SANTA FÉ
CBD,Aeródromo,CABILDO,-61.88416667,-38.49861111,159,Cabildo,PRIVADO,Nacional,BUENOS AIRES
CCA,Aeródromo,CURUZÚ CUATIÁ,-57.98277778,-29.7725,70,Curuzú Cuatiá,PUBLICO,Nacional,CORRIENTES
CCH,Aeródromo,CARLOS CASARES/HAYDEE,-61.405525,-35.6698945,82,Carlos Casares,PRIVADO,Nacional,BUENOS AIRES
CCI,Aeródromo,CALCHAQUÍ,-60.29201667,-29.85157222,56,Calchaquí,PRIVADO,Nacional,SANTA FÉ
CCM,Aeródromo,CARLOS CASARES/MALATINI,-61.36821,-35.56915,82,Carlos Casares,PRIVADO,Nacional,BUENOS AIRES
CCO,Aeródromo,CARLOS CASARES/OTTAVIANI,-61.35038,-35.64817,82,Carlos Casares,PRIVADO,Nacional,BUENOS AIRES
CCP,Aeródromo,CONCEPCIÓN,-65.61694444,-27.34472222,386,Concepción,PRIVADO,Nacional,TUCUMÁN
CCS,Aeródromo,CACHI,-66.1572,-25.10518,2510,Cachi,PRIVADO,Nacional,SALTA
CDA,Aeródromo,SARGENTO CABRAL/CONDOR DEL AIRE,-60.62857,-33.46586,56,Sargento Cabral,PRIVADO,Nacional,SANTA FÉ
CDI,Aeródromo,CARCARAÑÁ/DI GIUSEPPE,-61.12414,-32.89099,89,Carcarañá,PRIVADO,Nacional,SANTA FÉ
CDL,Aeródromo,CAÑADA DE LUQUE/BIONDI,-63.74818,-30.75769,249,Cañada de Luque,PRIVADO,Nacional,CÓRDOBA
CDS,Aeródromo,CAÑADÓN SECO,-67.55972222,-46.53805556,90,Cañadón Seco,PRIVADO,Nacional,SANTA CRUZ
CDU,Aeródromo,CONCEPCIÓN DEL URUGUAY,-58.30666667,-32.455,34,Concepción del Uruguay,PUBLICO,Nacional,ENTRE RÍOS
CED,Aeródromo,MERCEDES,-65.42051,-33.6422,515,Villa Mercedes,PUBLICO,Nacional,SAN LUIS
CEJ,Aeródromo,LAS CEJAS/AGROALAS SRL,-64.74583333,-26.86972222,346,Las Cejas,PRIVADO,Nacional,TUCUMÁN
CFU,Aeródromo,CARHUE/FUMAGRO,-62.78055556,-37.21472222,111,Carhué,PRIVADO,Nacional,BUENOS AIRES
CHA,Aeródromo,CHARATA,-61.21011,-27.21639,92,Charata,PUBLICO,Nacional,CHACO
CHC,Aeródromo,CHAJARI/EA. LA CHOZA,-58.29287,-30.53899,72,Chajarí,PRIVADO,Nacional,ENTRE RÍOS
CHJ,Aeródromo,CHAJARI,-58.00002,-30.7539,53,Chajarí,PUBLICO,Nacional,ENTRE RÍOS
CHM,Aeródromo,CHOS MALAL,-70.22305556,-37.44416667,850,Chos Malal,PUBLICO,Nacional,NEUQUÉN
CHO,Aeródromo,CHOLILA,-71.45682,-42.4806,574,Cholila,PRIVADO,Nacional,CHUBUT
CHP,Aeródromo,SAN MARTÍN DE LOS ANDES/AVIADOR C. CAMPOS,-71.13722222,-40.07527778,783,San Martín de los Andes,PUBLICO,Nacional,NEUQUÉN
CHR,Aeródromo,CHACHARRAMENDI,-65.64701,-37.34005,290,Chacharramendi,PUBLICO,Nacional,LA PAMPA
CHT,Aeródromo,CHARATA/EL GRINGO,-61.21041,-27.30629,92,Charata,PRIVADO,Nacional,CHACO
CHY,Aeródromo,CHIVILCOY,-60.03222222,-34.9625,53,Chivilcoy,PUBLICO,Nacional,BUENOS AIRES
CIF,Aeródromo,ARRECIFES/AEROCLUB,-60.04602,-34.07849,43,Arrecifes,PRIVADO,Nacional,BUENOS AIRES
CII,Aeródromo,CORRIENTES/ITA IBATE,-57.42222222,-27.44833333,68,Ita Ibate,PRIVADO,Nacional,CORRIENTES
CIP,Aeródromo,CIPOLLETTI/AEROCLUB,-67.98888889,-38.89277778,270,Cipolletti,PUBLICO,Nacional,RÍO NEGRO
CIT,Aeródromo,CORRIENTES/ITATI,-58.31527778,-27.30333333,60,Itatí,PRIVADO,Nacional,CORRIENTES
CLD,Aeródromo,CHAÑAR LADEADO,-62.03693,-33.3391,112,Chañar Ladeado,PUBLICO,Nacional,SANTA FÉ
CLE,Aeródromo,CORRALITO/LOMAS DEL ESPINILLO,-64.16972222,-32.08805556,439.5,Río Tercero,PRIVADO,Nacional,CÓRDOBA
CLH,Aeródromo,LAS HERAS,-68.96583,-46.53848,330,Las Heras,PUBLICO,Nacional,SANTA CRUZ
CLI,Aeródromo,CALILEGUA,-64.74972222,-23.78166667,442,Calilegua,PRIVADO,Nacional,JUJUY
CLN,Aeródromo,COLÓN,-58.15611111,-32.26083333,20,Colón,PUBLICO,Nacional,ENTRE RÍOS
CLT,Aeródromo,COLONIA CATRIEL,-67.82881,-37.90819,313,Catriel,PUBLICO,Nacional,RÍO NEGRO
CNA,Aeródromo,CAÑUELAS,-58.72638889,-35.11166667,30,Cañuelas,PUBLICO,Nacional,BUENOS AIRES
CNO,Aeródromo,CARMEN DE ARECO,-59.87444444,-34.41805556,49,Carmen de Areco,PUBLICO,Nacional,BUENOS AIRES
CNS,Aeródromo,CANALS,-62.86911,-33.56247,116,Canals,PRIVADO,Nacional,CÓRDOBA
COA,Aeródromo,ARIAS,-62.37505556,-33.66431111,121.5,Arias,PRIVADO,Nacional,CÓRDOBA
COL,Aeródromo,RÍO COLORADO,-64.14027778,-38.995,84,Río Colorado,PRIVADO,Nacional,RÍO NEGRO
CON,Aeródromo,COLÓN,-61.04638889,-33.9225,90,Colón,PUBLICO,Nacional,BUENOS AIRES
CPO,Aeródromo,CAMPO DE MAYO,-58.672,-34.53433,24,Estación San Miguel,PRIVADO,Nacional,BUENOS AIRES
CQN,Aeródromo,COSQUIN/SANTA MARÍA,-64.45555556,-31.28583333,700,Cosquín,PRIVADO,Nacional,CÓRDOBA
CQZ,Aeródromo,CAÑADA QUIROZ,-58.7175,-27.54972222,55,Corrientes,PRIVADO,Nacional,CORRIENTES
CRD,Aeródromo,CONCORDIA/AEROCLUB,-58.015,-31.30388889,90,Concordia,PUBLICO,Nacional,ENTRE RÍOS
CRR,Aeródromo,CORRIENTES,-58.76194444,-27.44555556,61.5,Corrientes,PUBLICO,Internacional,CORRIENTES
CRV,Aeródromo,COMODORO RIVADAVIA/GRAL. E. MOSCONI,-67.46555556,-45.78527778,57.6,Comodoro Rivadavia,PUBLICO,Internacional,CHUBUT
CSA,Aeródromo,CALCHÍN/AEROCAMPO SERVICIOS AÉREOS,-63.27608,-31.65737,202,Calchín,PRIVADO,Nacional,CÓRDOBA
CSJ,Aeródromo,MORTEROS/CAMPO SAN JOSÉ,-62.01466,-30.77697,101,Morteros,PRIVADO,Nacional,CÓRDOBA
CSP,Aeródromo,CAPITÁN SARMIENTO/SAN PATRICIO,-59.69444444,-34.04027778,45,Capitán Sarmiento,PRIVADO,Nacional,BUENOS AIRES
CSQ,Aeródromo,CAPITÁN SARMIENTO/QUEBRACHO HERRADO,-59.87336,-34.15622,52,Capitán Sarmiento,PRIVADO,Nacional,BUENOS AIRES
CSR,Aeródromo,CARLOS CASARES,-61.39401,-35.6298,80,Carlos Casares,PUBLICO,Nacional,BUENOS AIRES
CSU,Aeródromo,CHAJARI/SUR,-58.01428056,-30.80216944,69,Chajarí,PRIVADO,Nacional,ENTRE RÍOS
CTA,Aeródromo,COPETONAS,-60.55343,-38.74354,51,Copetonas,PRIVADO,Nacional,BUENOS AIRES
CTP,Aeródromo,CATRILO/ESTABLECIMIENTO LA MARIA PILAR,-63.43305556,-36.48861111,125,Catrilo,PRIVADO,Nacional,LA PAMPA
CTS,Aeródromo,CAPITÁN SARMIENTO,-59.73148,-34.16435,49,Capitán Sarmiento,PUBLICO,Nacional,BUENOS AIRES
CUA,Aeródromo,RÍO CUARTO/AEROCLUB,-64.33722222,-33.16055556,424,Río Cuarto,PUBLICO,Nacional,CÓRDOBA
CUM,Aeródromo,LA CUMBRE,-64.5321,-31.00589,1138,La Cumbre,PUBLICO,Nacional,CÓRDOBA
CUT,Aeródromo,CUTRAL-CO,-69.265,-38.93972222,650,Cutral Có,PUBLICO,Nacional,NEUQUÉN
CVV,Aeródromo,VILLA VALERIA,-64.90111111,-34.35638889,290,Villa Valeria,PRIVADO,Nacional,CÓRDOBA
CZU,Aeródromo,CURUZÚ CUATIÁ/AEROCLUB,-58.09694444,-29.77888889,80,Curuzú Cuatiá,PUBLICO,Nacional,CORRIENTES
DAR,Aeródromo,DARREGUEIRA,-63.16253,-37.7122,198,Darregueira,PRIVADO,Nacional,BUENOS AIRES
DFR,Aeródromo,DAIREAUX/FUMIGACIONES RODRIGUEZ,-61.77504,-36.59076,113,Daireaux,PUBLICO,Nacional,BUENOS AIRES
DIA,Aeródromo,CONCORDIA/COMODORO PIERRESTEGUI,-57.99666667,-31.29694444,34,Concordia,PUBLICO,Nacional,ENTRE RÍOS
DIL,Aeródromo,TANDIL/HÉROES DE MALVINAS,-59.22858611,-37.23437778,175,Tandil,PUBLICO,Nacional,BUENOS AIRES
DIO,Aeródromo,TANDIL/COMANDANTE EDUARDO A. OLIVERO,-58.98268,-37.34678,193,Tandil,PUBLICO,Nacional,BUENOS AIRES
DOF,Aeródromo,MARTINEZ DE HOZ/FUMIGACIONES ORTEGA,-61.55366,-35.27799,89,Coronel Martinez de Hoz,PRIVADO,Nacional,BUENOS AIRES
DOL,Aeródromo,DOLORES,-57.72055556,-36.32,10,Dolores,PUBLICO,Nacional,BUENOS AIRES
DOP,Aeródromo,MENDOZA/LA PUNTILLA,-68.87395,-32.96254,942,Ap. El Plumerillo,PUBLICO,Nacional,MENDOZA
DOR,Aeródromo,CORONEL DORREGO,-61.25583333,-38.74111111,120,Coronel Dorrego,PUBLICO,Nacional,BUENOS AIRES
DOZ,Aeródromo,MENDOZA/EL PLUMERILLO,-68.79277778,-32.83166667,704,Mendoza,PUBLICO,Internacional,MENDOZA
DRA,Aeródromo,SAAVEDRA,-62.33392,-37.74961,317,Saavedra,PUBLICO,Nacional,BUENOS AIRES
DRX,Aeródromo,DAIREAUX,-61.78416667,-36.58277778,116,Daireaux,PRIVADO,Nacional,BUENOS AIRES
DRY,Aeródromo,PUERTO MADRYN/EL TEHUELCHE,-65.10277778,-42.75916667,130,Puerto Madryn,PUBLICO,Nacional,CHUBUT
DTE,Aeródromo,DIAMANTE,-60.58329,-32.01621,75,Diamante,PUBLICO,Nacional,ENTRE RÍOS
EAU,Aeródromo,USHUAIA/EST. AERONAVAL,-68.30416667,-54.82277778,6,Ushuaia,PRIVADO,Nacional,TIERRA DEL FUEGO ANTÁRTIDA E ISLAS DEL ATLÁNTICO SUR
EBF,Aeródromo,ESPERANZA/ANIBAL BRIZI,-60.89944444,-31.40555556,39,Esperanza,PRIVADO,Nacional,SANTA FÉ
ECA,Aeródromo,EL CALAFATE,-72.05305556,-50.28,204,El Calafate,PUBLICO,Nacional,SANTA CRUZ
ECX,Aeródromo,EDUARDO CASTEX,-64.275,-35.88222222,183,Eduardo Castex,PUBLICO,Nacional,LA PAMPA
EDO,Aeródromo,CORONEL OLMEDO,-64.14083,-31.48679,432,Coronel Olmedo,PUBLICO,Nacional,CÓRDOBA
EGO,Aeródromo,LAS PAREJAS/EL GAUCHO,-61.54444444,-32.62944444,105,Las Parejas,PRIVADO,Nacional,SANTA FÉ
ELC,Aeródromo,VEINTICINCO DE MAYO/ESTANCIA LA CRIOLLA,-60.12916667,-35.53666667,48,25 de Mayo,PRIVADO,Nacional,BUENOS AIRES
ELD,Aeródromo,ELDORADO,-54.57472222,-26.39694444,209,Eldorado,PUBLICO,Nacional,MISIONES
ELL,Aeródromo,MAR DEL SUR/EA. LUCILA,-58.105,-38.30861111,22,Mar del Sur,PRIVADO,Nacional,BUENOS AIRES
ELP,Aeródromo,SANTA ROSA/EL PAMPERO,-64.18672,-36.59712,178,Santa Rosa,PUBLICO,Nacional,LA PAMPA
ELZ,Aeródromo,ELIZALDE,-57.9625,-34.975,7,Rufino de Elizalde,PUBLICO,Nacional,BUENOS AIRES
EMA,Aeródromo,EL MAITÉN,-71.17083333,-42.03,718,El Maitén,PUBLICO,Nacional,CHUBUT
EML,Aeródromo,CORONEL BRANDSEN/EL MANANTIAL,-58.35994,-35.19441,15,Coronel Brandsen,PRIVADO,Nacional,BUENOS AIRES
ENO,Aeródromo,MARIANO MORENO,-58.78972222,-34.56,32,José C. Paz,PUBLICO,Nacional,BUENOS AIRES
ENV,Aeródromo,RIACHUELO/NUEVA VALENCIA,-58.819,-27.58744,57,Corrientes,PRIVADO,Nacional,CORRIENTES
EPZ,Aeródromo,ESPERANZA,-60.84527778,-31.47333333,38,Esperanza,PUBLICO,Nacional,SANTA FÉ
ERE,Aeródromo,CERES,-61.92696,-29.87161,87,Ceres,PUBLICO,Nacional,SANTA FÉ
ERT,Aeródromo,VILLA MERCEDES/EA. DON ROBERTO,-65.36657,-34.0011,436,Villa Mercedes,PRIVADO,Nacional,SAN LUIS
ESN,Aeródromo,ESQUINA,-59.53521,-30.04762,39,Esquina,PUBLICO,Nacional,CORRIENTES
ESQ,Aeródromo,ESQUEL/BRIGADIER GENERAL ANTONIO PARODI,-71.13554,-42.90381,799,Esquel,PUBLICO,Nacional,CHUBUT
ESR,Aeródromo,EL ESPINILLO/ESTANCIA SAN RAFAEL,-58.59132,-25.04338,88,El Espinillo,PRIVADO,Nacional,FORMOSA
ETB,Aeródromo,EL TREBOL,-61.71634,-32.2162,92,El Trebol,PUBLICO,Nacional,SANTA FÉ
EVC,Aeródromo,GDOR. VALENTIN VIRASORO/EA. VILLA CORINA,-56.07106,-28.04099,123,Gobernador Valentín Virasoro,PRIVADO,Nacional,CORRIENTES
EZA,Aeródromo,LOS CONQUISTADORES/BUENA ESPERANZA,-58.39961,-30.52042,75,Los Conquistadores,PRIVADO,Nacional,ENTRE RÍOS
EZE,Aeródromo,EZEIZA/MINISTRO PISTARINI,-58.53583333,-34.82222222,20.5,Capital Federal,PUBLICO,Internacional,BUENOS AIRES
EZP,Aeródromo,EZPELETA,-58.20333333,-34.74638889,3,Ezpeleta,PUBLICO,Nacional,BUENOS AIRES
FAE,Aeródromo,FIRMAT/AEROCLUB,-61.51124,-33.42909,105,Firmat,PRIVADO,Nacional,SANTA FÉ
FAG,Aeródromo,FEDERAL/LA ANGELITA,-58.70666667,-30.85222222,70,Federal,PRIVADO,Nacional,ENTRE RÍOS
FDD,Aeródromo,FORTÍN DRAGONES/EL DESAFÍO,-63.32305556,-23.2425,244,Dragones,PRIVADO,Nacional,SALTA
FDO,Aeródromo,SAN FERNANDO,-58.59091,-34.45454,3,San Fernando,PUBLICO,Internacional,BUENOS AIRES
FIM,Aeródromo,FIRMAT,-61.50111111,-33.46805556,105,Firmat,PRIVADO,Nacional,SANTA FÉ
FLO,Aeródromo,LAS FLORES,-59.10055556,-36.06638889,34,Las Flores,PUBLICO,Nacional,BUENOS AIRES
FMA,Aeródromo,CÓRDOBA/CAPITÁN D. OMAR DARIO GELARDI,-64.25847,-31.44195,486,Córdoba,PUBLICO,Nacional,CÓRDOBA
FOR,Aeródromo,FORMOSA/AEROCLUB,-58.29833333,-26.30138889,70,Formosa,PUBLICO,Nacional,FORMOSA
FRA,Aeródromo,SAN FRANCISCO,-62.13305556,-31.41305556,114,San Francisco,PUBLICO,Nacional,CÓRDOBA
FRO,Aeródromo,ROSARIO DE LA FRONTERA,-64.96323,-25.82616,837,Rosario de la Frontera,PRIVADO,Nacional,SALTA
FRS,Aeródromo,FRÍAS,-65.11333333,-28.62861111,330,Frías,PUBLICO,Nacional,SANTIAGO DEL ESTERO
FSA,Aeródromo,FORMOSA,-58.22805556,-26.21277778,59,Formosa,PUBLICO,Internacional,FORMOSA
FUN,Aeródromo,DEAN FUNES,-64.37973,-30.37934,689,Dean Funes,PUBLICO,Nacional,CÓRDOBA
FVA,Aeródromo,FLORENCIO VARELA/EL PÁJARO,-58.31666667,-34.82666667,16,Florencio Varela,PUBLICO,Nacional,BUENOS AIRES
GAA,Aeródromo,GUALEGUAY/AGROAEREO GUALEGUAY,-59.43992,-33.03832,16,Gualeguay,PRIVADO,Nacional,ENTRE RÍOS
GAI,Aeródromo,GANCEDO/AGROAIRE,-61.65877,-27.49486,115,Gancedo,PRIVADO,Nacional,CHACO
GAL,Aeródromo,RÍO GALLEGOS/PILOTO CIVIL NORBERTO FERNANDEZ,-69.31217,-51.60881,19,Río Gallegos,PUBLICO,Internacional,SANTA CRUZ
GAR,Aeródromo,GENERAL ALVEAR,-59.90699,-35.97895,50,General Alvear,PRIVADO,Nacional,BUENOS AIRES
GAS,Aeródromo,GENERAL VILLEGAS,-62.99883,-34.99615,117,General Villegas,PUBLICO,Nacional,BUENOS AIRES
GBE,Aeródromo,GENERAL BELGRANO,-58.46327,-35.75191,12,General Belgrano,PRIVADO,Nacional,BUENOS AIRES
GBL,Aeródromo,SALTA/GENERAL BELGRANO,-65.41888889,-24.74583333,1261,Salta,PUBLICO,Nacional,SALTA
GCR,Aeródromo,GOBERNADOR CRESPO/AEROCLUB,-60.36916667,-30.38722222,52,Gobernador Crespo,PUBLICO,Nacional,SANTA FÉ
GDH,Aeródromo,GENERAL DEHEZA,-63.79611111,-32.745,274,General Deheza,PUBLICO,Nacional,CÓRDOBA
GDO,Aeródromo,GANCEDO/PULVERIZACIONES.M.H.,-61.64441,-27.47845,97,Gancedo,PRIVADO,Nacional,CHACO
GEP,Aeródromo,GUALEGUAYCHÚ/EL POTRERO,-58.25388889,-32.97472222,27,Gualeguaychú,PRIVADO,Nacional,ENTRE RÍOS
GES,Aeródromo,VILLA GESELL,-57.02388889,-37.23444444,10,Villa Gesell,PUBLICO,Nacional,BUENOS AIRES
GEZ,Aeródromo,GENERAL RODRIGUEZ/EAA,-59.03583333,-34.68027778,28,General Rodriguez,PUBLICO,Nacional,BUENOS AIRES
GIL,Aeródromo,SAN ANDRÉS DE GILES,-59.42472222,-34.47027778,51,San Andrés de Giles,PUBLICO,Nacional,BUENOS AIRES
GIT,Aeródromo,GOYA/ITALAVIATION,-59.17949,-29.15852,64,Goya,PRIVADO,Nacional,CORRIENTES
GLH,Aeródromo,GENERAL LAS HERAS,-58.91638889,-34.92055556,35,General Las Heras,PUBLICO,Nacional,BUENOS AIRES
GLM,Aeródromo,GUALEGUAYCHÚ/BLM CABAÑAS,-58.52222222,-32.9775,7.17,Gualeguaychú,PRIVADO,Nacional,ENTRE RÍOS
GLP,Aeródromo,GUALEGUAYCHÚ/EA. LA PROVIDENCIA,-58.56483,-32.9414,20,Gualeguaychú,PRIVADO,Nacional,ENTRE RÍOS
GNA,Aeródromo,GENERAL ALVEAR,-67.69319,-35.05939,454,General Alvear,PUBLICO,Nacional,MENDOZA
GNR,Aeródromo,GENERAL ROCA/DR. ARTURO HUMBERTO ILLIA,-67.61972222,-39,260,General Roca,PUBLICO,Nacional,RÍO NEGRO
GNV,Aeródromo,GENERAL VIAMONTE/LOS TOLDOS,-61.02083333,-34.97722222,72,General Viamonte,PUBLICO,Nacional,BUENOS AIRES
GOC,Aeródromo,GOBERNADOR CASTRO/EL GIRASOL,-59.83415,-33.66857,28,Gobernador Castro,PRIVADO,Nacional,BUENOS AIRES
GOM,Aeródromo,CAÑADA DE GÓMEZ,-61.36579,-32.80887,82,Cañada de Gómez,PUBLICO,Nacional,SANTA FÉ
GOR,Aeródromo,GOBERNADOR GORDILLO/CHAMICAL,-66.29403,-30.34416,458,El Chamical,PUBLICO,Nacional,LA RIOJA
GOY,Aeródromo,GOYA,-59.21874,-29.10595,39,Goya,PUBLICO,Nacional,CORRIENTES
GOZ,Aeródromo,GÓMEZ,-58.0858,-35.09556,19,Gómez,PUBLICO,Nacional,BUENOS AIRES
GPF,Aeródromo,GENERAL PICO/CEREALES ANAHÍ RUCA,-63.71805556,-35.67361111,139,General Pico,PRIVADO,Nacional,LA PAMPA
GPI,Aeródromo,GENERAL PICO,-63.75888889,-35.69472222,140,General Pico,PUBLICO,Nacional,LA PAMPA
GPK,Aeródromo,GENERAL PINEDO/KALBERMATTER,-61.47444444,-27.26027778,101,General Pinedo,PRIVADO,Nacional,CHACO
GPO,Aeródromo,GENERAL PINEDO,-61.27484,-27.34401,91,General Pinedo,PUBLICO,Nacional,CHACO
GRA,Aeródromo,RÍO GRANDE,-67.74952,-53.7776,20,Río Grande,PUBLICO,Internacional,TIERRA DEL FUEGO ANTÁRTIDA E ISLAS DEL ATLÁNTICO SUR
GRE,Aeródromo,GOBERNADOR GREGORES,-70.16222222,-48.78333333,356,Gobernador Gregores,PUBLICO,Nacional,SANTA CRUZ
GRZ,Aeródromo,GENERAL RODRIGUEZ,-59.00055556,-34.58277778,28,General Rodriguez,PRIVADO,Nacional,BUENOS AIRES
GSE,Aeródromo,GUAVIRAVÍ/EA. SANTA ELISA,-56.88124,-29.30444,63,Guaviraví,PRIVADO,Nacional,CORRIENTES
GTE,Aeródromo,GUATRACHE,-63.55708,-37.70516,175,Guatrache,PUBLICO,Nacional,LA PAMPA
GUA,Aeródromo,GUALEGUAYCHÚ,-58.61277778,-33.00555556,23,Gualeguaychú,PUBLICO,Nacional,ENTRE RÍOS
GVA,Aeródromo,GENERAL ALVEAR/AEROCLUB,-67.72416667,-34.96972222,466,General Alvear,PRIVADO,Nacional,MENDOZA
GVZ,Aeródromo,GONZALEZ CHAVES,-60.13388889,-38.03305556,194,Adolfo Gonzalez Cháves,PUBLICO,Nacional,BUENOS AIRES
GYA,Aeródromo,GOYA/AEROCLUB,-59.24699,-29.16975,38,Goya,PRIVADO,Nacional,CORRIENTES
GYT,Aeródromo,GOBERNADOR GARMENDIA/AGRO SERVICIO YORIS,-64.52869,-26.57916,318,Gobernador Garmendia,PRIVADO,Nacional,TUCUMÁN
HAB,Helipuerto,HELIPLATAFORMA AM1,-68.385833,-52.519167,30,Estrecho de Magallanes,PRIVADO,Nacional,TIERRA DEL FUEGO ANTÁRTIDA E ISLAS DEL ATLÁNTICO SUR
HAC,Helipuerto,ALPA CORRAL/JUAN Y LUCI,-64.716543,-32.689893,733,Alpa Corral,PRIVADO,Nacional,CÓRDOBA
HAD,Helipuerto,HELIPLATAFORMA AM2,-68.3125,-52.548889,44,Estrecho de Magallanes,PRIVADO,Nacional,TIERRA DEL FUEGO ANTÁRTIDA E ISLAS DEL ATLÁNTICO SUR
HAG,Helipuerto,LUJAN/SOL DE AGOSTO,-58.970859,-34.53325,10,Luján,PRIVADO,Nacional,BUENOS AIRES
HAI,Helipuerto,VILLA CARLOS PAZ/NORBERTO CORDEIRO,-64.497037,-31.41415,621,Margen E Río San Antonio y Río Uruguay,PRIVADO,Nacional,CÓRDOBA
HAM,Helipuerto,HELIPLATAFORMA AM3,-68.280833,-52.522778,41,Estrecho de Magallanes,PRIVADO,Nacional,TIERRA DEL FUEGO ANTÁRTIDA E ISLAS DEL ATLÁNTICO SUR
HAS,Helipuerto,PARANÁ/AMARRAS DEL SOL,-60.50083333,-31.70861111,16,Paraná,PRIVADO,Nacional,ENTRE RÍOS
HAT,Helipuerto,ALMAFUERTE/TRANSENER S.A.,-64.314603,-32.20354,500,Almafuerte,PRIVADO,Nacional,CÓRDOBA
HAU,Helipuerto,BUENOS AIRES/AUTÓDROMO CIUDAD DE BS. AS.,-58.460425,-34.693918,16,,PRIVADO,Nacional,CIUDAD AUTÓNOMA DE BUENOS AIRES
HBA,Helipuerto,SAN CARLOS DE BARILOCHE/ARELAUQUEN,-71.36568,-41.161161,945,San Carlos de Bariloche,PRIVADO,Nacional,RÍO NEGRO
HBC,Helipuerto,BUENOS AIRES/B. CHURRUCA,-58.409441,-34.64073,6,Ciudad de Buenos Aires,PUBLICO,Nacional,CIUDAD AUTÓNOMA DE BUENOS AIRES
HBI,Helipuerto,CÓRDOBA/HELIPUERTO CENTRO CÍVICO BICENTENARIO,-64.173382,-31.420398,392,Aeropuerto,PRIVADO,Nacional,CÓRDOBA
HBM,Helipuerto,BUENOS AIRES/MADERO,-58.344913,-34.621535,5,Ciudad de Buenos Aires,PRIVADO,Nacional,CIUDAD AUTÓNOMA DE BUENOS AIRES
HBO,Helipuerto,EL BRACHO/TRANSENER S.A.,-65.163478,-26.993528,378,El Bracho,PRIVADO,Nacional,TUCUMÁN
HBP,Helipuerto,BAHÍA BLANCA/PBB POLISUR S.A.,-62.293984,-38.77345,5,Bahía Blanca,PRIVADO,Nacional,BUENOS AIRES
HBR,Helipuerto,CÓRDOBA/BERRINI,-64.34373,-31.439765,552,Córdoba,PRIVADO,Nacional,CÓRDOBA
HBT,Helipuerto,LA PLATA,-57.92948611,-34.90044444,6,La Plata,PRIVADO,Nacional,BUENOS AIRES
HCA,Helipuerto,COSTA AZUL/LA CALDERA,-56.678721,-36.666985,10,Duhau,,,
HCC,Helipuerto,CHOEL  CHOEL/TRANSENER S.A.,-65.68877,-39.566662,130,Lamarque,PRIVADO,Nacional,RÍO NEGRO
HCD,Helipuerto,SAN MARTÍN DE LOS ANDES/EA. LA CANDELARIA,-71.366646,-40.044053,914,San Martín de los Andes,PRIVADO,Nacional,NEUQUÉN
HCE,Helipuerto,HELIPLATAFORMA/RÍO CULLEN-HIDRACENTRO TOTAL AUSTRAL,-68.178889,-52.836389,39,,PRIVADO,Nacional,TIERRA DEL FUEGO ANTÁRTIDA E ISLAS DEL ATLÁNTICO SUR
HCG,Helipuerto,EZEIZA/TRANSENER S.A.,-58.719844,-34.912354,20,Cañuelas,PRIVADO,Nacional,BUENOS AIRES
HCI,Helipuerto,BELÉN DE ESCOBAR/CABAÑA SAN ISIDRO LABRADOR I,-58.78852,-34.378674,12,Belén de Escobar,PRIVADO,Nacional,BUENOS AIRES
HCL,Helipuerto,CATAN LIL/EA. SANTA ISABEL,-70.513907,-39.884782,950,Departamento de Collón Curá,PRIVADO,Nacional,NEUQUÉN
HCN,Helipuerto,EMBALSE/CENTRAL NUCLEAR,-64.439904,-32.229454,530,Embalse,PRIVADO,Nacional,CÓRDOBA
HCO,Helipuerto,CHENAUT/EL CAPRICHO,-59.315902,-34.232743,30,Estación Chenaut,PRIVADO,Nacional,BUENOS AIRES
HCP,Helipuerto,YACIMIENTO CAÑADON ALFA/TOTAL AUSTRAL S.A.,-68.572493,-52.738661,87,,PRIVADO,Nacional,TIERRA DEL FUEGO ANTÁRTIDA E ISLAS DEL ATLÁNTICO SUR
HCR,Helipuerto,BARREALES - GRAN MENDOZA/TRANSENER S.A.,-68.579397,-33.099208,674,Barreales,PRIVADO,Nacional,MENDOZA
HCS,Helipuerto,CAPILLA DEL SEÑOR/LAS ARAUCARIAS,-59.170276,-34.307048,25,Capilla del Señor,PRIVADO,Nacional,BUENOS AIRES
HCT,Helipuerto,CAMPANA/TRANSENER S.A.,-58.999307,-34.174379,10,Campana,PRIVADO,Nacional,BUENOS AIRES
HCU,Helipuerto,CÓRDOBA/CIUDAD UNIVERSITARIA,-64.190266,-31.440805,440,Medina Allende,,,
HCV,Helipuerto,CABO VÍRGENES/BRM CABO VÍRGENES,-68.408453,-52.330311,55,Río Gallegos,PRIVADO,Nacional,SANTA CRUZ
HDA,Helipuerto,BUENOS AIRES/DARSENA SUR,-58.351532,-34.627862,5,Isla Demarchi,PUBLICO,Nacional,CIUDAD AUTÓNOMA DE BUENOS AIRES
HDI,Helipuerto,BUENOS AIRES/DINES DR. E. ESCUDERO,-58.400458,-34.572579,6,Salguero y Costanera,PRIVADO,Nacional,CIUDAD AUTÓNOMA DE BUENOS AIRES
HDL,Helipuerto,JUNÍN DE LOS ANDES/CASA DE LATA,-71.16995,-39.815579,982,Junín de los Andes,PRIVADO,Nacional,NEUQUÉN
HDR,Helipuerto,GRANADERO BAIGORRIA/HOSPITAL R. CARRILLO,-60.709211,-32.851806,37,Granadero Baigorria,PUBLICO,Nacional,SANTA FÉ
HDS,Aeródromo,HENDERSON,-61.74777778,-36.31527778,150,Henderson,PUBLICO,Nacional,BUENOS AIRES
HDT,Helipuerto,DON TORCUATO/TIMEN S.A.,-58.608031,-34.496085,6,Ex Aeródromo Don Torcuato,PUBLICO,Nacional,BUENOS AIRES
HEA,Helipuerto,HELIPLATAFORMA AM6,-68.127778,-52.608333,32,Cabo Vírgenes,PRIVADO,Nacional,TIERRA DEL FUEGO ANTÁRTIDA E ISLAS DEL ATLÁNTICO SUR
HEC,Helipuerto,LA PLATA/ECODYMA S.C.A.,-57.991881,-34.940786,14,Estación La Plata,PRIVADO,Nacional,BUENOS AIRES
HEN,Helipuerto,BAHÍA SAN SEBASTIÁN/PLANTA CRUZ DEL SUR,-68.266107,-53.32299,53,Río Grande,PRIVADO,Nacional,TIERRA DEL FUEGO ANTÁRTIDA E ISLAS DEL ATLÁNTICO SUR
HES,Helipuerto,ARIES/TOTAL FINA,-68.041944,-52.683056,0,,PRIVADO,Nacional,TIERRA DEL FUEGO ANTÁRTIDA E ISLAS DEL ATLÁNTICO SUR
HET,Helipuerto,SANTIAGO DEL ESTERO/HELIPUERTO EDIFICIO TRIBUNALES,-64.265127,-27.781396,195,Av. H. Yrigoyen entre Av. Alvear y Chacabuco,PRIVADO,Nacional,SANTIAGO DEL ESTERO
HEV,Helipuerto,ALMIRANTE BROWN/DESTACAMENTO POLICIAL EL VAPOR,-58.384984,-34.834672,28,Destacamento Policial El Vapor,PUBLICO,Nacional,BUENOS AIRES
HFA,Helipuerto,BUENOS AIRES/FUERZA AÉREA,-58.368051,-34.58598,6,Estación Retiro,PRIVADO,Nacional,CIUDAD AUTÓNOMA DE BUENOS AIRES
HFC,Helipuerto,SALTA/FINCA LAS COSTAS,-65.495501,-24.770405,1311,Salta,PRIVADO,Nacional,SALTA
HFV,Helipuerto,FLORENCIO VARELA/COLONIA LA CAPILLA,-58.250221,-34.916875,25,Florencio Varela,PUBLICO,Nacional,BUENOS AIRES
HGA,Helipuerto,CAÑUELAS/CAÑUELAS GAS S.A.,-58.788161,-35.058342,30,Cañuelas,PRIVADO,Nacional,BUENOS AIRES
HGB,Helipuerto,SALTA/CENTRO CÍVICO GRAND BOURG,-65.451084,-24.780762,1260,Salta,PRIVADO,Nacional,SALTA
HGM,Helipuerto,GONZALEZ CATÁN/LAR DE PAZ S.A.,-58.658271,-34.776299,15,Estación FFCC Gonzalez Catán,PRIVADO,Nacional,BUENOS AIRES
HGN,Helipuerto,BUENOS AIRES/CENTINELA,-58.374528,-34.582445,13,Ciudad de Buenos Aires,PRIVADO,Nacional,CIUDAD AUTÓNOMA DE BUENOS AIRES
HGS,Aeródromo,HUGHES/PLUS AGROSERVICIOS AÉREOS,-61.3375,-33.81111111,97,Hughes,PRIVADO,Nacional,SANTA FÉ
HHL,Helipuerto,LAS LAJAS/EA. HAYCHOL,-70.677494,-38.548178,1051,Las Lajas,PRIVADO,Nacional,NEUQUÉN
HHM,Helipuerto,SALTA/HOSPITAL DE MILAGRO,-65.415621,-24.772921,1240,Salta,PRIVADO,Nacional,SALTA
HHT,Helipuerto,DON TORCUATO/TECNOCOPTER S.A.,-58.606915,-34.492668,20,Ex Aeródromo Don Torcuato,PUBLICO,Nacional,BUENOS AIRES
HHW,Helipuerto,MORENO/HELIWEST,-58.751782,-34.634199,21.5,Moreno,PRIVADO,Nacional,BUENOS AIRES
HIL,Helipuerto,GRAL. VILLEGAS/SAN ISIDRO LABRADOR II,-63.079953,-35.081749,115,General Villegas,PRIVADO,Nacional,BUENOS AIRES
HIS,Helipuerto,LA MATANZA/CAMPANÓPOLIS,-58.601878,-34.791733,6,Aeropuerto Ezeiza / Ministro Pistarini,PRIVADO,Nacional,BUENOS AIRES
HIT,Helipuerto,ITUZAINGÓ/TRANSENER,-56.658294,-27.558575,71,Ituzaingó,PRIVADO,Nacional,CORRIENTES
HJN,Helipuerto,JUNÍN DE LOS ANDES/EA. PALITUE,-71.046426,-39.852774,859,Junín de los Andes,PRIVADO,Nacional,NEUQUÉN
HLE,Helipuerto,LAGO ESCONDIDO/HIDDEN LAKE S.A.,-71.607697,-41.70337,830,El Bolsón,PRIVADO,Nacional,RÍO NEGRO
HLF,Helipuerto,CAPILLA DEL SEÑOR/LOS FRESNOS,-59.118616,-34.2816,34,Capilla del Señor,PRIVADO,Nacional,BUENOS AIRES
HLH,Helipuerto,LUJÁN/HOMAQ,-59.045919,-34.557353,24,Luján,PRIVADO,Nacional,BUENOS AIRES
HLI,Helipuerto,DON TORCUATO/HELICENTER,-58.606884,-34.497531,3.87,Ex Aeródromo Don Torcuato,PRIVADO,Nacional,BUENOS AIRES
HLL,Helipuerto,SAN CARLOS DE BARILOCHE/COMPLEJO LLAO LLAO,-71.533825,-41.054659,775,San Carlos de Bariloche,PRIVADO,Nacional,RÍO NEGRO
HLP,Helipuerto,LA PLATA/HELIPUERTO D.P.A.O.,-57.893075,-34.959802,19,Extremo W del aeródromo,PUBLICO,Nacional,BUENOS AIRES
HLR,Helipuerto,LOS CARDALES/LA RESERVA,-58.900427,-34.270449,6,Los Cardales,PRIVADO,Nacional,BUENOS AIRES
HLS,Helipuerto,OPEN DOOR/LA SUPERBA,-59.015184,-34.500721,0,,PRIVADO,Nacional,BUENOS AIRES
HLT,Helipuerto,VILLA ROSA/LAS CHACRITAS,-58.863589,-34.404632,19.66,Villa Rosa,PRIVADO,Nacional,BUENOS AIRES
HLU,Helipuerto,LUJÁN/TRANSENER S.A.,-66.066423,-32.366669,600,Luján,PRIVADO,Nacional,SAN LUIS
HMA,Helipuerto,HUDSON/MANUEL AFONSO,-58.195412,-34.815509,11,,PUBLICO,Nacional,BUENOS AIRES
HMC,Helipuerto,GARÍN/MIRAFLORES COUNTRY CLUB,-58.734061,-34.445915,21,Garin,PRIVADO,Nacional,BUENOS AIRES
HMD,Helipuerto,BUENOS AIRES/HELIPUERTO SWISS MEDICAL,-58.429528,-34.581053,59,Juan B. Justo 909,PRIVADO,Nacional,CIUDAD AUTÓNOMA DE BUENOS AIRES
HME,Helipuerto,PILAR/MEMORIAL,-58.836706,-34.444449,19,Ruta Panamericana Km. 46,PRIVADO,Nacional,BUENOS AIRES
HMF,Helipuerto,LA MATANZA/OFICIAL SUBINSPECTOR GUSTAVO SOAREZ DE SOUZA,-58.514923,-34.723585,43,Ruta 4 y Autopista Richieri,PRIVADO,Nacional,BUENOS AIRES
HMG,Helipuerto,BUENOS AIRES / MADERO HARBOUR,-58.36092778,-34.62097778,78.8,Edificio T5 - Complejo Madero Harbour,PRIVADO,Nacional,CIUDAD AUTÓNOMA DE BUENOS AIRES
HMH,Helipuerto,SAN FERNANDO/PARANÁ MINÍ,-58.510795,-34.171041,5,Río Paraná Miní,PRIVADO,Nacional,BUENOS AIRES
HMM,Helipuerto,DR. MARIANO MORENO,-58.790569,-34.562908,32,José C. Paz,PRIVADO,Nacional,BUENOS AIRES
HMQ,Helipuerto,HELIPLATAFORMA AM5,-68.253333,-52.570556,30,Estrecho de Magallanes,PRIVADO,Nacional,TIERRA DEL FUEGO ANTÁRTIDA E ISLAS DEL ATLÁNTICO SUR
HMT,Helipuerto,MONTE CRISTO/TRANSENER S.A.,-63.913851,-31.3392,330,Monte Cristo,PRIVADO,Nacional,CÓRDOBA
HMY,Helipuerto,LA MATANZA/TERMINAL Y.P.F.,-58.557711,-34.731886,10,Ruta Prov. 21 y Av. Cristianía,PRIVADO,Nacional,BUENOS AIRES
HNB,Helipuerto,TIGRE/NORDELTA,-58.642147,-34.439639,5,Tigre,PRIVADO,Nacional,BUENOS AIRES
HNE,Helipuerto,VILLA NUEVA/DAYRY PARTNERS AMERICAS MANUFACTURING ARGENTINA S.A,-63.22409,-32.437713,195,Villa Nueva,PRIVADO,Nacional,CÓRDOBA
HNH,Helipuerto,HELIPLATAFORMA NOBLE HOUSTON COLBERT,-67.220278,-53.098333,63.5,Cuenca Marina Austral I Aguas Juridiccionales Argentinas,PRIVADO,Nacional,TIERRA DEL FUEGO ANTÁRTIDA E ISLAS DEL ATLÁNTICO SUR
HNO,Helipuerto,HELIPLATAFORMA/RÍO CULLEN-HIDRANORT,-68.219167,-52.820556,20,,PRIVADO,Nacional,TIERRA DEL FUEGO ANTÁRTIDA E ISLAS DEL ATLÁNTICO SUR
HNP,Helipuerto,BUENOS AIRES/HOSPITAL NACIONAL DE PEDIATRÍA PROF. JUAN GARRAHAM,-58.393835,-34.63098,39,Av. Juan de Garay y Pichincha,PUBLICO,Nacional,CIUDAD AUTÓNOMA DE BUENOS AIRES
HOB,Helipuerto,ALTA GRACIA/ORESTE BERTA,-64.397768,-31.633061,570,Alta Gracia,PRIVADO,Nacional,CÓRDOBA
HOC,Helipuerto,HELIPLATAFORMA OCEANIC CHAMPION,-66.41666667,-52.83333333,20,Río Grande,PRIVADO,Nacional,TIERRA DEL FUEGO ANTÁRTIDA E ISLAS DEL ATLÁNTICO SUR
HOS,Helipuerto,HELIPLATAFORMA MÓVIL OCEAN SCEPTER,-67.433333,-46.466667,154,Golfo San Jorge,PRIVADO,Nacional,SANTA CRUZ
HPA,Helipuerto,BUENOS AIRES/PRESIDENCIA DE LA NACIÓN,-58.368322,-34.606433,8,Av Madero,,,
HPC,Helipuerto,CÓRDOBA/POLICIA PROVINCIA DE CÓRDOBA,-64.199434,-31.40821,393,Córdoba,PUBLICO,Nacional,CÓRDOBA
HPD,Helipuerto,MENDOZA/POLICIA DE LA PROVINCIA DE MENDOZA,-68.867744,-32.878387,807,Aeropuerto de Mendoza,PRIVADO,Nacional,MENDOZA
HPE,Helipuerto,PARANÁ/HOSPITAL MATERNO INFANTIL SAN ROQUE,-60.521265,-31.730027,81,Paraná,PUBLICO,Nacional,ENTRE RÍOS
HPG,Helipuerto,PIEDRA DEL ÁGUILA/TRANSENER S.A.,-70.042408,-40.161297,702,Piedra del Águila,PRIVADO,Nacional,NEUQUÉN
HPI,Helipuerto,PILAR GOLF/PIERO VARA,-58.972486,-34.433128,12,Pilar,PRIVADO,Nacional,BUENOS AIRES
HPL,Helipuerto,LA RIOJA/HELIPUERTO POLICIA PROVINCIAL C.A.P.E.,-66.863203,-29.435592,520,La Rioja,PRIVADO,Nacional,LA RIOJA
HPM,Helipuerto,LA PLATA/POLICLÍNICO SAN MARTÍN,-57.921928,-34.924584,21,Av. 1 y Calle 71,PUBLICO,Nacional,BUENOS AIRES
HPN,Helipuerto,BUENOS AIRES/P.N.A. OF. PPAL. BALLESTRA,-58.383829,-34.577207,6,Junín y Rafael Obligado (Dársena F),PRIVADO,Nacional,CIUDAD AUTÓNOMA DE BUENOS AIRES
HPO,Helipuerto,PUERTO ESPERANZA,-54.638298,-25.99034,155,Esperanza,PRIVADO,Nacional,MISIONES
HPS,Helipuerto,PACHÓN/HELIPUERTO PACHÓN MINERA S.A.,-70.41209,-31.760056,3600,Pachón,PRIVADO,Nacional,SAN JUAN
HPT,Helipuerto,SAN MARTÍN/COOPERATIVA DE TRABAJOS PORTUARIOS LIMITADA,-60.72647778,-32.71917778,9,Puerto General San Martín,PRIVADO,Nacional,SANTA FÉ
HPU,Helipuerto,PUELCHES/TRANSENER S.A.,-65.824946,-38.147703,229,Puelches,PRIVADO,Nacional,LA PAMPA
HRC,Helipuerto,CARMEN DE ARECO/SAN JOAQUÍN,-59.721463,-34.338474,42,Carmen de Areco,PRIVADO,Nacional,BUENOS AIRES
HRE,Helipuerto,RECREO/TRANSENER S.A.,-65.058247,-29.262769,247,Recreo,PRIVADO,Nacional,CATAMARCA
HRI,Helipuerto,HELIPLATAFORMA CARINA/TOTAL FINA ELF,-67.219444,-52.757222,0,,PRIVADO,Nacional,TIERRA DEL FUEGO ANTÁRTIDA E ISLAS DEL ATLÁNTICO SUR
HRM,Helipuerto,SAN MARTÍN DE LOS ANDES/RANCHO DE MONTAÑA,-71.285379,-40.152264,1005,San Martín de los Andes,PRIVADO,Nacional,NEUQUÉN
HRR,Helipuerto,MORRISON,-62.83505,-32.586092,142,Morrison,PRIVADO,Nacional,CÓRDOBA
HRT,Helipuerto,ROMANG/TRANSENER S.A.,-59.764765,-29.461483,58,Romang,PRIVADO,Nacional,SANTA FÉ
HRW,Helipuerto,RÍO GRANDE/EA. RÍO EWAN,-67.21324,-54.23355,33.7,Río Grande,PRIVADO,Nacional,TIERRA DEL FUEGO ANTÁRTIDA E ISLAS DEL ATLÁNTICO SUR
HSC,Helipuerto,SPEGAZZINI/CENTRAL TÉRMICA,-58.61566667,-34.90202778,17,Carlos Spegazzini,PRIVADO,Nacional,BUENOS AIRES
HSD,Helipuerto,MORENO/COUNTRY CLUB SAN DIEGO,-58.840928,-34.600466,23.5,Moreno,PRIVADO,Nacional,BUENOS AIRES
HSG,Helipuerto,BUENOS AIRES/SANATORIO GÜEMES,-58.421945,-34.59703,82,Facundo Acuña de Figueroa y Av. Córdoba,PRIVADO,Nacional,CIUDAD AUTÓNOMA DE BUENOS AIRES
HSH,Helipuerto,SAN ANDRÉS DE GILES/HOSPITAL MUNICIPAL,-59.449417,-34.448879,47,Rawson entre Soulé y Cámpora,PUBLICO,Nacional,BUENOS AIRES
HSJ,Aeródromo,CURUZÚ CUATIÁ/EA. SAN JUAN,-58.02205,-29.60179,82,Curuzú Cuatiá,PRIVADO,Nacional,CORRIENTES
HSM,Helipuerto,TIGRE/ISLA SANTA MÓNICA,-58.507365,-34.414724,3,,PRIVADO,Nacional,BUENOS AIRES
HSN,Helipuerto,SAN NICOLÁS DE LOS ARROYOS/MIGUEL COLOMBISE,-60.249353,-33.358932,27,Estación FFCC local,PUBLICO,Nacional,BUENOS AIRES
HSR,Helipuerto,SANTA CRUZ/EA. SAN RAMÓN,-69.917664,-50.303036,374,Puerto Santa Cruz,PRIVADO,Nacional,SANTA CRUZ
HSW,Helipuerto,HELIPLATAFORMA SWIBER PJW3000,-67.96400424,-53.07649481,36,Campo Vega Pleyade (531929S-0674311W 530346S-0674649W 525444S-0680635W 525554S-0681826W),PRIVADO,Nacional,TIERRA DEL FUEGO ANTÁRTIDA E ISLAS DEL ATLÁNTICO SUR
HTA,Helipuerto,CONCEPCIÓN DEL URUGUAY/HELIPUERTO TALITAS,-58.240705,-32.548188,8,Concepción del Uruguay,PRIVADO,Nacional,ENTRE RÍOS
HTD,Helipuerto,TANDIL/EA. LA PASCUALA,-58.966403,-37.393711,220,Tandil,PRIVADO,Nacional,BUENOS AIRES
HTE,Helipuerto,SALTA/TEMET,-65.372347,-24.836242,1180,Salta,PRIVADO,Nacional,SALTA
HTL,Helipuerto,TRENQUE LAUQUEN/EA. LA CHACOTA,-62.641667,-35.913333,90,Trenque Lauquen,PRIVADO,Nacional,BUENOS AIRES
HTS,Helipuerto,EL TURBIO/EA. SANTA ANA,-71.967747,-51.685796,665,El Turbio,PRIVADO,Nacional,SANTA CRUZ
HUE,Aeródromo,CARHUÉ,-62.78138889,-37.19388889,110,Carhué,PRIVADO,Nacional,BUENOS AIRES
HUG,Aeródromo,HUANGUELÉN,-61.95324,-37.05267,158,Huanguelén,PRIVADO,Nacional,BUENOS AIRES
HUI,Aeródromo,HUINCA RENANCÓ,-64.37412,-34.82041,180,Huinca Renancó,PUBLICO,Nacional,CÓRDOBA
HUM,Aeródromo,HUMBOLDT/ESTABLECIMIENTO LA ADELITA,-61.14256,-31.38986,50,Humboldt,PRIVADO,Nacional,SANTA FÉ
HUP,Helipuerto,GENERAL ALVEAR/UNIDAD PENITENCIARIA N° 30,-60.016667,-36.044444,55,General Alvear,PRIVADO,Nacional,BUENOS AIRES
HUU,Helipuerto,HELIPUERTO SATURNINO UNZUÉ,-60.159541,-35.423236,50,Estación FFCC,PRIVADO,Nacional,BUENOS AIRES
HVA,Helipuerto,TIGRE/VILLA LA ÑATA,-58.655755,-34.375231,3,Estación FFCC Tigre,PRIVADO,Nacional,BUENOS AIRES
HVM,Helipuerto,VILLA MARTELLI/CITEFA,-58.505501,-34.557728,17,Zufriategui,,,
HWG,Helipuerto,BUQUE W. G. VESPUCCI,-66.81666667,-52.9,28,25 de Mayo 555 Piso 19-20 CABA,PRIVADO,Nacional,TIERRA DEL FUEGO ANTÁRTIDA E ISLAS DEL ATLÁNTICO SUR
HYC,Helipuerto,YACANTO DE CALAMUCHITA/ROCA VAL,-64.780353,-32.05978,1050,Villa Yacanto,PRIVADO,Nacional,CÓRDOBA
HZA,Aeródromo,MAIPÚ/ESTABLECIMIENTO EL ARAZA,-57.64277778,-36.77583333,93,Estación Santo Domingo,PRIVADO,Nacional,BUENOS AIRES
IAA,Aeródromo,INTENDENTE ALVEAR/AZCARATE IRATORSA,-63.61052,-35.18862,127,Intendente Alvear,PRIVADO,Nacional,LA PAMPA
IAC,Aeródromo,LA QUIACA/DR. GUILLERMO EUGENIO SNOPEK,-65.57207,-22.16195,3480,La Quiaca,PUBLICO,Nacional,JUJUY
IAL,Aeródromo,INTENDENTE ALVEAR,-63.56571,-35.23368,127,Intendente Alvear,PUBLICO,Nacional,LA PAMPA
IBA,Aeródromo,INES INDART/BELINGUERES AVIACIÓN,-60.50444444,-34.27777778,63.7,Salto,PRIVADO,Nacional,BUENOS AIRES
IBY,Aeródromo,ISLAS DEL IBICUY,-58.68099,-33.7439,6,Islas de Ibicuy,PRIVADO,Nacional,ENTRE RÍOS
ICO,Aeródromo,COMODORO RIVADAVIA/13 DE DICIEMBRE,-67.55888889,-45.90416667,52,Comodoro Rivadavia,PUBLICO,Nacional,CHUBUT
IGL,Aeródromo,INGENIERO LUIGGI,-64.47527,-35.35546,193,Ingeniero Luiggi,PUBLICO,Nacional,LA PAMPA
IGU,Aeródromo,CATARATAS DEL  IGUAZÚ/MY. D. CARLOS EDUARDO KRAUSE,-54.47354,-25.73722,279,Cataratas del Iguazú,PUBLICO,Internacional,MISIONES
IJC,Aeródromo,INGENIERO JACOBACCI/CABO F.A.A. H. R. BORDÓN,-69.57611111,-41.32111111,892,Ingeniero Jacobacci,PUBLICO,Nacional,RÍO NEGRO
ILD,Aeródromo,CASILDA,-61.20973,-33.06242,77,Casilda,PUBLICO,Nacional,SANTA FÉ
ILM,Aeródromo,QUILMES,-58.24461,-34.70643,2,Quilmes,PRIVADO,Nacional,BUENOS AIRES
IRA,Aeródromo,MIRAMAR,-57.87083333,-38.22611111,13,Miramar,PUBLICO,Nacional,BUENOS AIRES
IRI,Aeródromo,BERNARDO DE IRIGOYEN,-53.67257,-26.28171,815,Bernardo de Irigoyen,PUBLICO,Nacional,MISIONES
ITO,Aeródromo,CHILECITO/BRIG. MY. JUAN FACUNDO QUIROGA,-67.43944444,-29.22333333,945,Chilecito,PUBLICO,Nacional,LA RIOJA
IVB,Aeródromo,ISLA VERDE/D. HÉCTOR BIONDI,-62.41538,-33.24674,118,Isla Verde,PUBLICO,Nacional,CÓRDOBA
IVL,Aeródromo,ISLA VERDE/BIONDI,-62.40464,-33.2232,119,Isla Verde,PRIVADO,Nacional,CÓRDOBA
JAH,Aeródromo,JUNÍN DE LOS ANDES/HOSTERIA SAN HUBERTO,-71.17,-39.70388889,691,Junín de los Andes,PRIVADO,Nacional,NEUQUÉN
JAR,Aeródromo,JACINTO ARAUZ,-63.42902,-38.066,160,Jacinto Arauz,PRIVADO,Nacional,LA PAMPA
JBA,Aeródromo,JUAN BAUTISTA ALBERDI,-61.90455,-34.48351,102,Juan Bautista Alberdi,PRIVADO,Nacional,BUENOS AIRES
JCM,Aeródromo,JUÁREZ CELMAN/BRIG. MY. JUAN IGNACIO SAN MARTÍN,-64.16064,-31.21113,495,Juárez Celman,PUBLICO,Nacional,CÓRDOBA
JDA,Aeródromo,JARDÍN DE AMÉRICA,-55.19805556,-27.0325,205,Jardín América,PRIVADO,Nacional,MISIONES
JES,Aeródromo,JESÚS MARÍA,-64.07797,-30.9883,530,Jesús Maria,PUBLICO,Nacional,CÓRDOBA
JGA,Aeródromo,JOAQUIN V. GONZALEZ/AGROPECUARIA RÍO JURAMENTO,-64.08135,-25.1866,1184,Salta,PRIVADO,Nacional,SALTA
JLA,Aeródromo,JUNÍN DE LOS ANDES/SAN IGNACIO,-70.86537,-39.84555,691,Junín de los Andes,PRIVADO,Nacional,NEUQUÉN
JMB,Aeródromo,TRES LOMAS,-62.87927,-36.44296,116,Tres Lomas,PRIVADO,Nacional,BUENOS AIRES
JOC,Aeródromo,JOVITA/ANTARES,-63.96055556,-34.53194444,154,Jovita,PRIVADO,Nacional,CÓRDOBA
JOR,Aeródromo,SAN JORGE,-61.84333333,-31.88277778,106,San Jorge,PUBLICO,Nacional,SANTA FÉ
JRZ,Aeródromo,JUÁREZ,-59.79194444,-37.70611111,212,Benito Juárez,PUBLICO,Nacional,BUENOS AIRES
JSM,Aeródromo,JOSÉ DE SAN MARTÍN,-70.44638889,-44.04722222,734,José de San Martín,PUBLICO,Nacional,CHUBUT
JUA,Aeródromo,SAN JUAN/DOMINGO FAUSTINO SARMIENTO,-68.41833333,-31.57138889,597,San Juan,PUBLICO,Nacional,SAN JUAN
JUJ,Aeródromo,JUJUY/GOBERNADOR GUZMÁN,-65.09777778,-24.3925,920,San Salvador de Jujuy,PUBLICO,Internacional,JUJUY
LAE,Aeródromo,PUNTA ROJA/EA. LA ELBA,-65.37055556,-44.57277778,14,Camarones,PRIVADO,Nacional,CHUBUT
LAM,Aeródromo,GENERAL LAMADRID,-61.27888889,-37.22611111,171,General La Madrid,PUBLICO,Nacional,BUENOS AIRES
LAN,Aeródromo,LANTERI,-59.67277778,-28.8575,56,Lanteri,PRIVADO,Nacional,SANTA FÉ
LAR,Aeródromo,LA RIOJA/CAP. VICENTE A. ALMONACID,-66.79583333,-29.38055556,438,La Rioja,PUBLICO,Nacional,LA RIOJA
LAU,Aeródromo,TRENQUE LAUQUEN,-62.69388889,-36.01583333,99,Trenque Lauquen,PUBLICO,Nacional,BUENOS AIRES
LAZ,Aeródromo,LA PAZ/AEROCLUB,-59.56887,-30.74368,61,La Paz,PRIVADO,Nacional,ENTRE RÍOS
LBI,Aeródromo,LOBERIA,-58.7872,-38.18951,81,Lobería,PRIVADO,Nacional,BUENOS AIRES
LCC,Aeródromo,LA CARLOTA/CASAJUS,-63.30551,-33.38823,143,La Carlota,PRIVADO,Nacional,CÓRDOBA
LCP,Aeródromo,LONCOPUÉ,-70.64406,-38.08177,1106,Loncopué,PUBLICO,Nacional,NEUQUÉN
LCT,Aeródromo,LA CARLOTA,-63.31375,-33.45761,154,La Carlota,PRIVADO,Nacional,CÓRDOBA
LDA,Aeródromo,LEZAMA/DON ALBERTO,-57.87667,-35.86972,8,Manuel J. Cobo,PRIVADO,Nacional,BUENOS AIRES
LDG,Aeródromo,LAGUNA DE GÓMEZ,-61.0091,-34.65469,80,Junín,PUBLICO,Nacional,BUENOS AIRES
LDR,Aeródromo,VILLA DOLORES,-65.1475,-31.9475,563,Cordoba,PUBLICO,Nacional,CÓRDOBA
LEN,Aeródromo,BELÉN DE ESCOBAR,-58.79888889,-34.29861111,4,Belén de Escobar,PRIVADO,Nacional,BUENOS AIRES
LEO,Aeródromo,LEONES,-62.31681,-32.64264,114,Leones,PRIVADO,Nacional,CÓRDOBA
LGM,Aeródromo,SARMIENTO/LAGO MUSTERS,-69.07713,-45.57506,27,Sarmiento,PRIVADO,Nacional,CHUBUT
LHP,Aeródromo,LAS HERAS/LOS PERALES,-69.28694444,-46.19194444,426,Las Heras,PRIVADO,Nacional,SANTA CRUZ
LIB,Aeródromo,PASO DE LOS LIBRES,-57.15222222,-29.68805556,70,Paso de los Libres,PUBLICO,Internacional,CORRIENTES
LIN,Aeródromo,LINCOLN,-61.53138889,-34.89083333,85,Lincoln,PUBLICO,Nacional,BUENOS AIRES
LIO,Aeródromo,NUEVE DE JULIO,-60.93333333,-35.39944444,75,9 de Julio,PUBLICO,Nacional,BUENOS AIRES
LJN,Aeródromo,LUJÁN,-59.07916667,-34.55055556,25,Luján,PRIVADO,Nacional,BUENOS AIRES
LLA,Aeródromo,LAS LAJITAS/AEROSOLUCIONES,-64.235,-24.74888889,492,Las Lajitas,PRIVADO,Nacional,SALTA
LLC,Aeródromo,LONGCHAMPS/LA CAÍDA,-58.34472222,-34.8625,28,Longchamps,PRIVADO,Nacional,BUENOS AIRES
LLE,Aeródromo,LIBERTAD/LA ESMERALDA,-57.83833,-29.9951,81,Libertad,PRIVADO,Nacional,CORRIENTES
LLJ,Aeródromo,LAS LAJAS,-70.3367,-38.53828,850,Las Lajas,PUBLICO,Nacional,NEUQUÉN
LMD,Aeródromo,JUAN N. FERNÁNDEZ/LA MADRUGADA,-59.34998,-38.00845,137,Juan N. Fernández,PRIVADO,Nacional,BUENOS AIRES
LMF,Aeródromo,LOS MOLINOS/ESTABLECIMIENTO LA FLORENCIA,-61.31628,-33.07912,75,Los Molinos,PRIVADO,Nacional,SANTA FÉ
LNH,Aeródromo,LAGO NAHUEL HUAPI,-71.17678,-41.09725,780,San Carlos de Bariloche,PUBLICO,Nacional,RÍO NEGRO
LNV,Aeródromo,LINCOLN/LA NUEVA,-61.30217,-34.94464,75,Lincoln,PRIVADO,Nacional,BUENOS AIRES
LPB,Aeródromo,COMANDANTE LUIS PIEDRABUENA,-68.94984,-49.99499,24,Comandante Luis Piedrabuena,PRIVADO,Nacional,SANTA CRUZ
LPP,Aeródromo,LAS PALMAS/PETRUK,-58.66944444,-27.08777778,54,Las Palmas,PRIVADO,Nacional,CHACO
LPR,Aeródromo,LAPRIDA,-60.77833333,-37.52083333,210,Laprida,PUBLICO,Nacional,BUENOS AIRES
LRE,Aeródromo,LA RAMADA DE ABAJO/DON EMILIO,-64.88463,-26.73288,530,La Ramada,PRIVADO,Nacional,TUCUMÁN
LRS,Aeródromo,LAS ROSAS,-61.58166667,-32.49305556,102,Las Rosas,PUBLICO,Nacional,SANTA FÉ
LRT,Aeródromo,LAS ROSAS/HORIZONTE APLICACIONES AÉREAS,-61.55083333,-32.52027778,98,Las Rosas,PRIVADO,Nacional,SANTA FÉ
LVA,Aeródromo,LAS VARAS/MACIAS,-62.63027778,-31.81722222,126,Las Varas,PRIVADO,Nacional,CÓRDOBA
LVL,Aeródromo,LAS VARILLAS,-62.70472222,-31.89166667,135,Las Varillas,PRIVADO,Nacional,CÓRDOBA
LVM,Aeródromo,LUJÁN/EA. VILLA MARÍA,-59.12727,-34.6436,32,Luján,PRIVADO,Nacional,BUENOS AIRES
LVR,Aeródromo,LAS VARILLAS/GINEVRO,-62.84449,-31.85801,145,Las Varillas,PRIVADO,Nacional,CÓRDOBA
LYE,Aeródromo,LABOULAYE,-63.36237,-34.13544,137,Laboulaye,PUBLICO,Nacional,CÓRDOBA
LZA,Aeródromo,LAGO LA ESPERANZA,-71.80522,-42.21713,560,Lago Puelo,PRIVADO,Nacional,CHUBUT
MAB,Aeródromo,MAGGIOLO/SAMAVE,-62.12792,-33.78639,109,Maggiolo,PRIVADO,Nacional,SANTA FÉ
MAC,Aeródromo,MACACHIN,-63.67893,-37.14581,140,Macachín,PRIVADO,Nacional,LA PAMPA
MAD,Aeródromo,GENERAL MADARIAGA,-57.13638889,-37.03861111,7,General Juan Madariaga,PUBLICO,Nacional,BUENOS AIRES
MAI,Aeródromo,MONTE MAIZ,-62.63111111,-33.21111111,113,Monte Maiz,PUBLICO,Nacional,CÓRDOBA
MAO,Aeródromo,VEINTICINCO DE MAYO,-67.65938,-37.80974,347,25 de Mayo,PRIVADO,Nacional,LA PAMPA
MAQ,Aeródromo,MAQUINCHAO,-68.70828,-41.24288,880,Maquinchao,PUBLICO,Nacional,RÍO NEGRO
MAT,Aeródromo,MATANZA,-58.50055556,-34.72833333,3,La Matanza,PUBLICO,Nacional,BUENOS AIRES
MAY,Aeródromo,VEINTICINCO DE MAYO,-60.08861111,-35.44638889,89,25 de Mayo,PRIVADO,Nacional,BUENOS AIRES
MBF,Aeródromo,MONTE BUEY/PEDRO FERRARI,-62.43474,-32.93173,108,Monte Buey,PUBLICO,Nacional,CÓRDOBA
MBI,Aeródromo,VICECOMODORO MARAMBIO,-56.63085,-64.23913,209.5,Isla Marambio. Mar de Weddell.,PUBLICO,Nacional,TIERRA DEL FUEGO ANTÁRTIDA E ISLAS DEL ATLÁNTICO SUR
MBL,Aeródromo,MIRAMAR/BELLAMAR,-58.13353,-38.38559,13,Miramar,PRIVADO,Nacional,BUENOS AIRES
MCL,Aeródromo,MINA CLAVERO,-64.98777778,-31.73027778,970,Mina Clavero,PUBLICO,Nacional,CÓRDOBA
MCO,Aeródromo,LOS MENUCOS,-68.07203,-40.81596,784,Los Menucos,PUBLICO,Nacional,RÍO NEGRO
MCP,Aeródromo,MONTE CASEROS/EL PILINCHO,-57.96833333,-30.38722222,71,Monte Caseros,PRIVADO,Nacional,CORRIENTES
MCS,Aeródromo,MONTE CASEROS,-57.63944444,-30.27027778,52,Monte Caseros,PUBLICO,Nacional,CORRIENTES
MCT,Aeródromo,MONTE CASEROS/TIMBOY,-57.84572,-30.23519,65,Monte Caseros,PRIVADO,Nacional,CORRIENTES
MDB,Aeródromo,MAR DEL PLATA/BATAN,-57.6775,-38.01166667,62,Batán,PUBLICO,Nacional,BUENOS AIRES
MDP,Aeródromo,MAR DEL PLATA/ASTOR PIAZZOLLA,-57.57333333,-37.93416667,22,Mar del Plata,PUBLICO,Internacional,BUENOS AIRES
MER,Aeródromo,MERLO,-58.74388889,-34.67638889,15,Merlo,PRIVADO,Nacional,BUENOS AIRES
MEZ,Aeródromo,CÓRDOBA/LA MEZQUITA,-64.3003,-31.40103,510,La Mezquita,PRIVADO,Nacional,CÓRDOBA
MGI,Aeródromo,ISLA MARTÍN GARCIA,-58.24694444,-34.18222222,2,Isla Martín Garcia,PUBLICO,Nacional,BUENOS AIRES
MIN,Aeródromo,VILLA MINETTI,-61.60359,-28.61901,75,Villa Minetti,PRIVADO,Nacional,SANTA FÉ
MJZ,Aeródromo,MARCOS JUAREZ,-62.15772,-32.684,110,Marcos Juarez,PUBLICO,Nacional,CÓRDOBA
MLA,Aeródromo,MALABRIGO,-59.97805556,-29.36722222,54,Malabrigo,PRIVADO,Nacional,SANTA FÉ
MLD,Aeródromo,CORONEL MOLDES,-64.61701,-33.61743,357,Coronel Moldes,PUBLICO,Nacional,CÓRDOBA
MLG,Aeródromo,MALARGÜE/COMODORO D. RICARDO SALOMÓN,-69.57305556,-35.49527778,1424,Malargüe,PUBLICO,Nacional,MENDOZA
MOI,Aeródromo,CORRALITO/DON MOISÉS,-64.19111111,-32.03555556,489,Corralito,PRIVADO,Nacional,CÓRDOBA
MON,Aeródromo,MONJE/FUMIGACIONES GONZALEZ,-60.97972222,-32.35888889,30,Monje,PRIVADO,Nacional,SANTA FÉ
MOR,Aeródromo,MORÓN,-58.64361111,-34.67916667,29,Morón,PUBLICO,Nacional,BUENOS AIRES
MPH,Aeródromo,MAR DEL PLATA/PARQUE HERMOSO,-57.63972222,-38.02833333,35,Parque Hermoso,PRIVADO,Nacional,BUENOS AIRES
MPP,Aeródromo,MAR DEL PLATA/CLUB DE PLANEADORES,-57.65361111,-38.01527778,45,Mar del Plata,PUBLICO,Nacional,BUENOS AIRES
MPU,Aeródromo,MAIPÚ,-57.85166667,-36.88888889,16,Maipú,PUBLICO,Nacional,BUENOS AIRES
MRD,Aeródromo,MERCEDES,-59.45527778,-34.63888889,42,Mercedes,PUBLICO,Nacional,BUENOS AIRES
MSA,Aeródromo,VEINTICINCO DE MAYO/SERVICIOS AGROAÉREOS,-60.16088,-35.44932,50,25 de Mayo,PRIVADO,Nacional,BUENOS AIRES
MSP,Aeródromo,MARCOS PAZ,-58.89693,-34.79759,28,Marcos Paz,PRIVADO,Nacional,BUENOS AIRES
MSR,Aeródromo,MERCEDES/EA. SANTA ROMANA,-65.24549,-33.74683,472,Villa Reynolds,PRIVADO,Nacional,SAN LUIS
MTL,Aeródromo,MONTECARLO,-54.72388889,-26.54416667,240,Montecarlo,PRIVADO,Nacional,MISIONES
MTN,Aeródromo,METAN,-64.96555556,-25.51416667,843,Metán,PRIVADO,Nacional,SALTA
MTR,Aeródromo,MORTEROS,-62.0259,-30.67594,94,Morteros,PUBLICO,Nacional,CÓRDOBA
MUQ,Aeródromo,QUEMÚ QUEMÚ,-63.63138889,-36.0575,0,Quemú Quemú,PUBLICO,Nacional,LA PAMPA
MUS,Aeródromo,CHASCOMÚS,-58.05194444,-35.54222222,10,Chascomús,PUBLICO,Nacional,BUENOS AIRES
NAN,Aeródromo,HERNANDO/AEROCLUB,-63.68583333,-32.34027778,282,Hernando,PRIVADO,Nacional,CÓRDOBA
NDL,Aeródromo,TANDIL/AEROCLUB,-59.09361111,-37.26305556,165,Tandil,PUBLICO,Nacional,BUENOS AIRES
NDR,Aeródromo,NORBERTO DE LA RIESTRA,-59.7910805,-35.327583,38.5,Norberto de la Riestra,PRIVADO,Nacional,BUENOS AIRES
NEC,Aeródromo,NECOCHEA,-58.81626,-38.48954,22,Necochea,PUBLICO,Nacional,BUENOS AIRES
NEI,Aeródromo,NECOCHEA/IRIBERRI,-58.80453,-38.47884,33,Necochea,PRIVADO,Nacional,BUENOS AIRES
NEU,Aeródromo,NEUQUÉN/PRESIDENTE PERÓN,-68.15583333,-38.94888889,273,Neuquén,PUBLICO,Internacional,NEUQUÉN
NIK,Aeródromo,LOBERIA/NIKA,-58.76087,-38.15666,80,Lobería,PRIVADO,Nacional,BUENOS AIRES
NIN,Aeródromo,JUNÍN,-60.93051,-34.54589,80,Junín,PUBLICO,Nacional,BUENOS AIRES
NJB,Aeródromo,NOGOYÁ/JUAN CARLOS BAGUR,-59.81583333,-32.41861111,58,Nogoyá,PRIVADO,Nacional,ENTRE RÍOS
NOG,Aeródromo,NOGOYÁ,-59.75055556,-32.39944444,43,Nogoyá,PRIVADO,Nacional,ENTRE RÍOS
NOT,Aeródromo,NOGOYÁ/TOGNOLI,-59.86611,-32.44736,60,Nogoyá,PRIVADO,Nacional,ENTRE RÍOS
NPA,Aeródromo,NECOCHEA/PULVERIZACIONES AEROSUR,-58.795,-38.57527778,15,Necochea,PRIVADO,Nacional,BUENOS AIRES
NST,Aeródromo,NUESTRA SEÑORA DE TALAVERA/FINCA TOLOCHE,-63.85805556,-25.4375,317,Nuestra Señora de Talavera,PRIVADO,Nacional,SALTA
NVR,Aeródromo,NAVARRO,-59.28583333,-35.02361111,30,Navarro,PUBLICO,Nacional,BUENOS AIRES
OBE,Aeródromo,OBERÁ,-55.12421,-27.5181,343,Oberá,PRIVADO,Nacional,MISIONES
OCA,Aeródromo,MONTES DE OCA,-61.84167,-32.58417,19,Montes de Oca,PRIVADO,Nacional,SANTA FÉ
OEL,Aeródromo,CHOELE CHOEL,-65.61,-39.28638889,196,Choele Choel,PUBLICO,Nacional,RÍO NEGRO
OGB,Aeródromo,CORONEL BOGADO/AEROFUMIGACIONES DON ALEJANDRO,-60.6561,-33.30609,52,Coronel Bogado,PRIVADO,Nacional,SANTA FÉ
OLA,Aeródromo,OLAVARRÍA,-60.22777778,-36.88888889,168,Olavarría,PUBLICO,Nacional,BUENOS AIRES
OLV,Aeródromo,OLIVA,-63.54799,-32.06029,268,Oliva,PUBLICO,Nacional,CÓRDOBA
OMA,Aeródromo,LOMA LA LATA,-68.73715,-38.41383,405,Neuquén,PRIVADO,Nacional,NEUQUÉN
ORA,Aeródromo,ORÁN,-64.3288,-23.15221,357,San Ramón de la Nueva Orán,PUBLICO,Nacional,SALTA
OSA,Aeródromo,SANTA ROSA,-64.27583333,-36.58833333,192,Santa Rosa,PUBLICO,Nacional,LA PAMPA
OVJ,Aeródromo,LAS OVEJAS,-70.74222222,-36.99916667,1200,Las Ovejas,PUBLICO,Nacional,NEUQUÉN
PAL,Aeródromo,EL PALOMAR,-58.6125,-34.61,18,El Palomar,PUBLICO,Nacional,BUENOS AIRES
PAN,Aeródromo,PASCANAS/EL RECUERDO S.R.L.,-63.19298,-33.1055,138,Pascanas,PRIVADO,Nacional,CÓRDOBA
PAR,Aeródromo,PARANÁ/GRAL. URQUIZA,-60.48027778,-31.79472222,74,Paraná,PUBLICO,Nacional,ENTRE RÍOS
PAS,Aeródromo,PASTEUR/LAS LILAS,-62.21764,-35.10957,107,Pasteur,PRIVADO,Nacional,BUENOS AIRES
PAT,Aeródromo,CARMEN DE PATAGONES,-62.98027778,-40.77805556,40,Carmen de Patagones,PUBLICO,Nacional,BUENOS AIRES
PBE,Aeródromo,POBLET,-57.94917,-35.08795,20,Poblet,PUBLICO,Nacional,BUENOS AIRES
PBO,Aeródromo,POSADAS/BONETTI,-55.86498,-27.60678,141,Parada Leis,PRIVADO,Nacional,MISIONES
PCA,Aeródromo,PIQUETE CABADO/SAS AEROAPLICACIONES,-64.18111111,-24.80666667,457,Piquete Cabado,PRIVADO,Nacional,SALTA
PDA,Aeródromo,JUJUY/PUERTA DE AVALOS,-65.24727,-24.31467,1190,San Salvador de Jujuy,PUBLICO,Nacional,JUJUY
PDP,Aeródromo,PRESIDENCIA ROCA/EA. DON PANOS,-59.53539,-26.29586,80,Presidencia Roca,PRIVADO,Nacional,CHACO
PED,Aeródromo,SAN PEDRO,-59.72527778,-33.70333333,27,San Pedro,PUBLICO,Nacional,BUENOS AIRES
PEH,Aeródromo,PEHUAJÓ/COM. PEDRO ZANNI,-61.85748,-35.84451,85,Pehuajó,PUBLICO,Nacional,BUENOS AIRES
PEL,Aeródromo,LA PELADA,-60.88698,-30.96087,44,La Pelada,PRIVADO,Nacional,SANTA FÉ
PEN,Aeródromo,PERGAMINO/LA NORIA,-60.70038,-33.85694,74,Pergamino,PRIVADO,Nacional,BUENOS AIRES
PEP,Aeródromo,RICARDONE/PETTILEP II,-60.79888889,-32.80388889,55,Ricardone,PRIVADO,Nacional,SANTA FÉ
PER,Aeródromo,PERGAMINO,-60.64805556,-33.92027778,72,Pergamino,PUBLICO,Nacional,BUENOS AIRES
PIG,Aeródromo,PIGÜÉ,-62.38194444,-37.60611111,312,Pigüé,PUBLICO,Nacional,BUENOS AIRES
PJO,Aeródromo,PEHUAJÓ/LA MARIELA,-61.94194444,-35.79055556,86,Pehuajó,PRIVADO,Nacional,BUENOS AIRES
PLC,Aeródromo,PIÑERO/EA. LA CAROLINA,-60.715,-33.07559,30,Piñero,PRIVADO,Nacional,SANTA FÉ
PLG,Aeródromo,PELLEGRINI,-63.14695,-36.27873,113,Pellegrini,PUBLICO,Nacional,BUENOS AIRES
PLL,Aeródromo,PUJATO/LA LUCÍA,-61.06286,-33.00928,73,Pujato,PRIVADO,Nacional,SANTA FÉ
PLS,Aeródromo,PIRANÉ/EA. LA SALVACIÓN,-58.93781,-25.281,98,Pirané,PRIVADO,Nacional,FORMOSA
PLT,Aeródromo,PUNTA ALTA,-62.08722222,-38.83416667,3,Punta Alta,PUBLICO,Nacional,BUENOS AIRES
PNA,Aeródromo,PARANÁ/CLUB DE PLANEADORES,-60.22,-31.73083333,46,Paraná,PRIVADO,Nacional,ENTRE RÍOS
PNR,Aeródromo,PINAMAR,-56.97416667,-37.09638889,9,Pinamar,PUBLICO,Nacional,BUENOS AIRES
PNT,Aeródromo,GENERAL PINTO,-61.91415,-34.78595,97,General Pinto,PUBLICO,Nacional,BUENOS AIRES
POS,Aeródromo,POSADAS/LIBERTADOR GRAL. D. JOSÉ DE SAN MARTÍN,-55.97049,-27.38573,131,Posadas,PUBLICO,Internacional,MISIONES
PRA,Aeródromo,PRESIDENTE ROCA/EA. LA LEONOR,-59.66378,-26.13774,87,Presidencia Roca,PRIVADO,Nacional,CHACO
PRC,Aeródromo,HUNTER/FUMIGACIONES FREDY,-60.58194444,-34.23611111,53.7,Hunter,PRIVADO,Nacional,BUENOS AIRES
PRI,Aeródromo,CORONEL PRINGLES,-61.33194444,-38.00666667,247,Coronel Pringles,PUBLICO,Nacional,BUENOS AIRES
PSA,Aeródromo,PIGÜÉ/SERVICIOS AERONÁUTICOS,-62.45231389,-37.52304444,247,Pigüé,PRIVADO,Nacional,BUENOS AIRES
PSP,Aeródromo,PRESIDENCIA ROQUE SAENZ PEÑA/TERMAL,-60.49329,-26.75564,94,Presidencia Roque Saenz Peña,PUBLICO,Nacional,CHACO
PST,Aeródromo,PUERTO SAN MARTÍN/TERMINAL 6,-60.7534,-32.64155,0,Puerto General San Martín,PRIVADO,Nacional,SANTA FÉ
PSV,Aeródromo,PRESIDENCIA ROQUE SAENZ PEÑA/ROVERE,-60.48741,-26.78309,0,Presidencia Roque Saenz Peña,PRIVADO,Nacional,CHACO
PTA,Aeródromo,LA PLATA,-57.89305556,-34.96916667,22,La Plata,PUBLICO,Nacional,BUENOS AIRES
PTL,Aeródromo,LA PLATA/TOLOSA,-57.96138889,-34.87444444,6,La Plata,PUBLICO,Nacional,BUENOS AIRES
PTM,Aeródromo,PERITO MORENO,-70.97879,-46.53844,430,Perito Moreno,PUBLICO,Nacional,SANTA CRUZ
PUA,Aeródromo,PUAN,-62.73444444,-37.53944444,240,Puan,PUBLICO,Nacional,BUENOS AIRES
PUP,Aeródromo,PUJATO/PETTILEP,-61.01765,-33.0077,61,Pujato,PRIVADO,Nacional,SANTA FÉ
RAE,Aeródromo,RIVADAVIA/AEROTEC,-68.49242,-33.2068,665,Rivadavia,PRIVADO,Nacional,MENDOZA
RAI,Aeródromo,RANCHOS/LA IGUALDAD,-58.44027778,-35.56861111,18,Ranchos,PRIVADO,Nacional,BUENOS AIRES
RAU,Aeródromo,RAUCH,-59.05772,-36.7719,94,Rauch,PUBLICO,Nacional,BUENOS AIRES
RAW,Aeródromo,RAWSON,-65.06319021,-43.29391627,11,Rawson,PUBLICO,Nacional,CHUBUT
RBS,Aeródromo,RUFINO/BSG,-62.67405,-34.24928,120,Rufino,PRIVADO,Nacional,SANTA FÉ
RCE,Aeródromo,MERCEDES,-58.08805556,-29.22222222,106,Mercedes,PUBLICO,Nacional,CORRIENTES
RCR,Aeródromo,RÍO TERCERO,-64.08833333,-32.17277778,380,Río Tercero,PUBLICO,Nacional,CÓRDOBA
RCV,Aeródromo,RÍO COLORADO/VALE,-69.39555556,-37.06555556,930,Rincón de los Sauces,PRIVADO,Nacional,MENDOZA
RDJ,Aeródromo,RICARDONE/DON JOSÉ,-60.78168,-32.82771,25,Ricardone,PRIVADO,Nacional,SANTA FÉ
RES,Aeródromo,RESISTENCIA/AEROCLUB,-59.17972222,-27.63111111,50,Resistencia,PUBLICO,Nacional,CHACO
RGR,Aeródromo,RÍO GALLEGOS/RÍO CHICO,-69.26027778,-51.66861111,21,Río Chico,PRIVADO,Nacional,SANTA CRUZ
RIE,Aeródromo,RÍO CUARTO/ESTINDHER,-64.42926,-33.09288,0,Río Cuarto,PRIVADO,Nacional,CÓRDOBA
RIN,Aeródromo,RINCÓN DE LOS SAUCES,-68.90444444,-37.39027778,600,Rincón de los Sauces,PRIVADO,Nacional,NEUQUÉN
RJA,Aeródromo,ROJAS,-60.67325,-34.21534,6,Rojas,PUBLICO,Nacional,BUENOS AIRES
RLA,Aeródromo,RAFAELA,-61.50166667,-31.2825,99,Rafaela,PUBLICO,Nacional,SANTA FÉ
RLC,Aeródromo,REALICÓ,-64.21277,-35.05892,165,Realicó,PUBLICO,Nacional,LA PAMPA
RMY,Aeródromo,RÍO MAYO,-70.24444444,-45.70388889,544,Río Mayo,PUBLICO,Nacional,CHUBUT
ROB,Aeródromo,ROBERTS/AGROAÉREO,-61.99718,-35.13588,99,Roberts,PRIVADO,Nacional,BUENOS AIRES
ROH,Aeródromo,ROBERTS/FUMIGACIONES HERBINSEC,-61.99028,-35.13652,102,Roberts,PRIVADO,Nacional,BUENOS AIRES
ROP,Aeródromo,ROSARIO/PUEBLO ESTHER,-60.56472222,-33.08166667,25,Pueblo Esther,PUBLICO,Nacional,SANTA FÉ
ROS,Aeródromo,ROSARIO/ISLAS MALVINAS,-60.78444444,-32.90361111,26,Rosario,PUBLICO,Internacional,SANTA FÉ
ROT,Aeródromo,ROSARIO DEL TALA,-59.19146,-32.32954,54,Rosario del Tala,PRIVADO,Nacional,ENTRE RÍOS
RST,Aeródromo,CAÑADA ROSQUIN/STIEFEL,-61.60277778,-31.99472222,71,Cañada Rosquín,PRIVADO,Nacional,SANTA FÉ
RTA,Aeródromo,RECONQUISTA,-59.68,-29.21027778,49,Reconquista,PUBLICO,Nacional,SANTA FÉ
RUF,Aeródromo,RUFINO,-62.6675,-34.28277778,114,Rufino,PUBLICO,Nacional,SANTA FÉ
RVA,Aeródromo,AMÉRICA,-62.99,-35.50194444,106,América,PUBLICO,Nacional,BUENOS AIRES
RVD,Aeródromo,RIVADAVIA,-68.47406,-33.22834,659,Rivadavia,PUBLICO,Nacional,MENDOZA
RYD,Aeródromo,VILLA REYNOLDS,-65.37579,-33.73178,485,Villa Mercedes,PUBLICO,Nacional,SAN LUIS
SAB,Aeródromo,SALADILLO/ABELENDA,-59.76197,-35.73851,39,Saladillo,PRIVADO,Nacional,BUENOS AIRES
SAF,Aeródromo,SAFORCADA/PARAJON,-61.00568,-34.57637,84,Saforcada,PRIVADO,Nacional,BUENOS AIRES
SAL,Aeródromo,SALTA/GENERAL D. MARTÍN MIGUEL DE GÜEMES,-65.48694444,-24.85972222,1246,Salta,PUBLICO,Internacional,SALTA
SAN,Aeródromo,SAN ANTONIO OESTE/ANTOINE DE SAINT EXUPERY,-65.03527778,-40.75055556,26,San Antonio Oeste,PUBLICO,Nacional,RÍO NEGRO
SBE,Aeródromo,SAN BENITO,-60.45166667,-31.80861111,59,San Benito,PRIVADO,Nacional,ENTRE RÍOS
SCA,Aeródromo,SUNCHALES/AEROCLUB,-61.52888889,-30.95722222,91,Sunchales,PUBLICO,Nacional,SANTA FÉ
SCF,Aeródromo,SANFORD/CASILDA FUMIGACIONES,-61.20267,-33.17625,79,Casilda,PRIVADO,Nacional,SANTA FÉ
SCL,Aeródromo,SANTA CLARA DE SAGUIER,-61.82983,-31.35548,105,Santa Clara de Saguier,PRIVADO,Nacional,SANTA FÉ
SCT,Aeródromo,SAN CRISTÓBAL,-61.22,-30.26416667,74,San Cristóbal,PRIVADO,Nacional,SANTA FÉ
SCZ,Aeródromo,SANTA CRUZ,-68.58027778,-50.01777778,111,Puerto Santa Cruz,PUBLICO,Nacional,SANTA CRUZ
SDE,Aeródromo,SANTIAGO DEL ESTERO/VCOM. ANGEL DE LA PAZ ARAGONÉS,-64.31,-27.76555556,200,Santiago del Estero,PUBLICO,Nacional,SANTIAGO DEL ESTERO
SDL,Aeródromo,SALADILLO,-59.81676,-35.60439,45,Saladillo,PUBLICO,Nacional,BUENOS AIRES
SEN,Aeródromo,CORONEL BRANDSEN,-58.29517,-35.18174,16,Coronel Brandsen,PRIVADO,Nacional,BUENOS AIRES
SER,Aeródromo,SERODINO/FUMIGACIONES STANDLER,-60.90944,-32.57978,37,Serodino,PRIVADO,Nacional,SANTA FÉ
SEZ,Aeródromo,GENERAL PINTO/ALFREDO SANCHEZ,-61.86958,-34.80139,100,General Pinto,PRIVADO,Nacional,BUENOS AIRES
SFN,Aeródromo,SELVA NUEVA/FUMIGACIONES NANDO S.H.,-62.03107,-29.77908,86,Selva,PRIVADO,Nacional,SANTIAGO DEL ESTERO
SGE,Aeródromo,SAN GREGORIO,-62.01916667,-34.31694444,106,San Gregorio,PRIVADO,Nacional,SANTA FÉ
SGI,Aeródromo,TRES ARROYOS/SANTAGIULIAN,-60.30111111,-38.40833333,104,Tres Arroyos,PRIVADO,Nacional,BUENOS AIRES
SGR,Aeródromo,SIERRA GRANDE,-65.33991,-41.59138,210,Sierra Grande,PUBLICO,Nacional,RÍO NEGRO
SGV,Aeródromo,SAN GUILLERMO/VERGNANO,-61.90083333,-30.31666667,96,San Guillermo,PRIVADO,Nacional,SANTA FÉ
SHP,Aeródromo,SAN ANTONIO DE ARECO/HARAS LA POMME,-59.39154,-34.21122,28,San Antonio de Areco,PRIVADO,Nacional,BUENOS AIRES
SIS,Aeródromo,RESISTENCIA,-59.05611111,-27.45,53,Resistencia,PUBLICO,Internacional,CHACO
SJA,Aeródromo,SAN JUAN/AEROCLUB,-68.54722222,-31.60305556,634,San Juan,PUBLICO,Nacional,SAN JUAN
SJB,Aeródromo,SAN JORGE/BOCCA,-61.95111111,-31.87111111,105,San Jorge,PRIVADO,Nacional,SANTA FÉ
SJD,Aeródromo,SAN JOSÉ DE LA DORMIDA,-63.85751,-30.27423,423,San José de la Dormida,PRIVADO,Nacional,CÓRDOBA
SJR,Aeródromo,SAN JAVIER/AEROCLUB,-59.99069,-30.55586,23,San Javier,PRIVADO,Nacional,SANTA FÉ
SJT,Aeródromo,SAN JUSTO,-60.56722222,-30.76611111,55,San Justo,PRIVADO,Nacional,SANTA FÉ
SJU,Aeródromo,SAN JULIÁN/CAPITÁN D. DANIEL VAZQUEZ,-67.80282,-49.30671,62,Puerto San Julián,PUBLICO,Nacional,SANTA CRUZ
SLG,Aeródromo,SALDUNGARAY,-61.76115,-38.20517,228,Saldungaray,PRIVADO,Nacional,BUENOS AIRES
SLO,Aeródromo,SALLIQUELÓ,-62.94407,-36.75659,127,Salliqueló,PUBLICO,Nacional,BUENOS AIRES
SLP,Aeródromo,SANTA ROSA/SAN ALBERTO,-64.22041,-36.59206,186,Santa Rosa,PRIVADO,Nacional,LA PAMPA
SLT,Aeródromo,SALTO,-60.28678,-34.3065,59,Salto,PUBLICO,Nacional,BUENOS AIRES
SLV,Aeródromo,EMBARCACIÓN/SALVITA,-64.03403,-23.21306,283,Embarcación,PRIVADO,Nacional,SALTA
SLY,Aeródromo,SALDUNGARAY/SANTO TOMÁS DE LA SIERRA,-61.82767,-38.24173,273,Saldungaray,PRIVADO,Nacional,BUENOS AIRES
SLZ,Aeródromo,SALAZAR/EA. EL TRIÁNGULO,-62.22694444,-36.35027778,104,Salazar,PRIVADO,Nacional,BUENOS AIRES
SMC,Aeródromo,SANTA MARÍA,-66.02481,-26.67385,1800,Santa María,PRIVADO,Nacional,CATAMARCA
SMF,Aeródromo,SAN MARTÍN/FINCA LA FRONTERA,-63.29064,-22.12362,49,Aguaray,PRIVADO,Nacional,SALTA
SMM,Aeródromo,SAN MIGUEL DEL MONTE/BAHÍA AGRADABLE,-58.76388889,-35.45944444,24,San Miguel del Monte,PUBLICO,Nacional,BUENOS AIRES
SMS,Aeródromo,SAN MARCOS/CHIALVA S.H.,-62.53111111,-32.73666667,115,Bell Ville,PRIVADO,Nacional,CÓRDOBA
SMT,Aeródromo,GENERAL SAN MARTÍN,-63.59111,-37.95934,161,General San Martín,PRIVADO,Nacional,LA PAMPA
SNT,Aeródromo,SAN ANTONIO DE ARECO,-59.43911,-34.2198,30,San Antonio de Areco,PUBLICO,Nacional,BUENOS AIRES
SNY,Aeródromo,SAN NICOLÁS DE LOS ARROYOS,-60.19555556,-33.39083333,30,San Nicolás de los Arroyos,PUBLICO,Nacional,BUENOS AIRES
SQI,Aeródromo,CAÑADA ROSQUIN,-61.61348,-32.10557,67,Cañada Rosquín,PRIVADO,Nacional,SANTA FÉ
SRA,Aeródromo,SAN RAFAEL/S.A. SANTIAGO GERMANO,-68.40358889,-34.58781667,753,San Rafael,PUBLICO,Nacional,MENDOZA
SRC,Aeródromo,SANTA ROSA DE CONLARA/VALLE DEL CONLARA,-65.18583333,-32.38472222,616,Santa Rosa del Conlara,PUBLICO,Nacional,SAN LUIS
SRE,Aeródromo,SANTA REGINA/FORTÍN DE GAINZA,-63.12451,-34.54661,130,Santa Regina,PRIVADO,Nacional,BUENOS AIRES
SRM,Aeródromo,SARMIENTO,-69.00111111,-45.58305556,270,Sarmiento,PRIVADO,Nacional,CHUBUT
SSK,Aeródromo,SALTO/SKARE,-60.15597,-34.35684,60,Est. Gahan,PUBLICO,Nacional,BUENOS AIRES
SSR,Aeródromo,SALADILLO/SANTA RITA,-60.14666667,-35.82833333,54,Saladillo,PRIVADO,Nacional,BUENOS AIRES
STD,Aeródromo,STROEDER,-62.61747,-40.21038,28,Stroeder,PUBLICO,Nacional,BUENOS AIRES
STI,Aeródromo,SAN MARTÍN,-68.50944444,-33.06222222,696,San Martín,PUBLICO,Nacional,MENDOZA
STR,Aeródromo,SANTA TERESITA,-56.72138889,-36.54222222,3,Santa Teresita,PUBLICO,Nacional,BUENOS AIRES
SUZ,Aeródromo,CORONEL SUÁREZ/BRIG. D. H. E.  RUIZ,-61.88934,-37.44609,234,Coronel Suárez,PUBLICO,Nacional,BUENOS AIRES
SVO,Aeródromo,SANTA FÉ/SAUCE VIEJO,-60.81138889,-31.71083333,17,Santa Fé,PUBLICO,Nacional,SANTA FÉ
TAR,Aeródromo,TARTAGAL/GENERAL ENRIQUE MOSCONI,-63.79305556,-22.61833333,449,Tartagal,PUBLICO,Nacional,SALTA
TBL,Aeródromo,EL TRÉBOL/BURDISSO,-61.75915,-32.24383,111,El Trebol,PRIVADO,Nacional,SANTA FÉ
TCM,Aeródromo,TUCUMÁN/AEROCLUB HORCO MOLLE,-65.30937,-26.79606,580,San Miguel de Tucumán,PUBLICO,Nacional,TUCUMÁN
TDB,Aeródromo,EL TREBOL/DE BERNARDO,-61.65166667,-32.25055556,87,El Trébol,PRIVADO,Nacional,SANTA FÉ
TEC,Aeródromo,ESTANCIA TECKA,-71.02194444,-43.61222222,720,Estancia Tecka,PRIVADO,Nacional,CHUBUT
TEJ,Aeródromo,CARLOS TEJEDOR,-62.46944444,-35.42527778,94,Carlos Tejedor,PUBLICO,Nacional,BUENOS AIRES
TEO,Aeródromo,TEODELINA/F.A.T.,-61.50694444,-34.17666667,87,Teodelina,PRIVADO,Nacional,SANTA FÉ
TEV,Aeródromo,TINTINA/ESTABLECIMIENTO EL 21,-62.30972222,-26.89527778,68,Tintina,PRIVADO,Nacional,SANTIAGO DEL ESTERO
THN,Aeródromo,TOLHUIN,-67.17226,-54.49961,213,Tolhuin,PRIVADO,Nacional,TIERRA DEL FUEGO ANTÁRTIDA E ISLAS DEL ATLÁNTICO SUR
TIN,Aeródromo,TINOGASTA,-67.57759,-28.04089,1210,Tinogasta,PRIVADO,Nacional,CATAMARCA
TIO,Aeródromo,TÍO PUJIO,-63.40194444,-32.29305556,237,Tío Pújio,PRIVADO,Nacional,CÓRDOBA
TIR,Aeródromo,COLONIA TIROLESA,-64.03847,-31.24797,407,Colonia Tirolesa,PRIVADO,Nacional,CÓRDOBA
TLS,Aeródromo,TILISARAO,-65.28158,-32.75226,751,Tilisarao,PUBLICO,Nacional,SAN LUIS
TOR,Aeródromo,TORNQUIST,-62.24944444,-38.095,285,Tornquist,PRIVADO,Nacional,BUENOS AIRES
TOS,Aeródromo,TOSTADO,-61.78845,-29.23552,69,Tostado,PUBLICO,Nacional,SANTA FÉ
TOT,Aeródromo,ALTA GRACIA /EL TOTO,-64.36888889,-31.65027778,540,Alta Gracia,PRIVADO,Nacional,CÓRDOBA
TQL,Aeródromo,TRENQUE LAUQUEN/ÑANCO LAUQUEN,-62.77194444,-35.97027778,92,Trenque Lauquen,PUBLICO,Nacional,BUENOS AIRES
TRC,Aeródromo,RÍO CUARTO/ÁREA DE MATERIAL,-64.26934,-33.09216,421,Río Cuarto,PUBLICO,Nacional,CÓRDOBA
TRE,Aeródromo,TRELEW/ALMIRANTE ZAR,-65.27027778,-43.21055556,43,Trelew,PUBLICO,Internacional,CHUBUT
TRH,Aeródromo,TERMAS DE RÍO HONDO,-64.93596,-27.49662,280.5,Termas de Río Hondo,PUBLICO,Nacional,SANTIAGO DEL ESTERO
TRW,Aeródromo,TRELEW/AEROCLUB,-65.32414,-43.23564,39,Trelew,PUBLICO,Nacional,CHUBUT
TSV,Aeródromo,TORTUGAS/EA. SAN VICENTE,-61.77805556,-32.99888889,70,Tortugas,PRIVADO,Nacional,SANTA FÉ
TUC,Aeródromo,TUCUMÁN/TENIENTE BENJAMIN MATIENZO,-65.10472222,-26.84083333,455,San Miguel de Tucumán,PUBLICO,Internacional,TUCUMÁN
TVN,Aeródromo,TREVELIN,-71.47808,-43.08742,397,Trevelin,PRIVADO,Nacional,CHUBUT
TXO,Aeródromo,EL TRAPIAL/CHEVRON TEXACO,-69.30194444,-37.365,883,Rincón de los Sauces,PRIVADO,Nacional,NEUQUÉN
UAE,Aeródromo,GUALEGUAY/AEROCLUB,-59.37388889,-33.10222222,13,Gualeguay,PUBLICO,Nacional,ENTRE RÍOS
UCO,Aeródromo,CHACABUCO,-60.40972222,-34.60722222,69,Chacabuco,PUBLICO,Nacional,BUENOS AIRES
UEL,Aeródromo,VILLAGUAY/EL JAGÜEL,-59.03479,-31.80384,61,Villaguay,PRIVADO,Nacional,ENTRE RÍOS
UEN,Aeródromo,QUEQUEN/MOROMAR,-58.37148208,-38.42552552,15,Quequén,PRIVADO,Nacional,BUENOS AIRES
UIS,Aeródromo,SAN LUIS/BRIG. MAYOR D. CÉSAR RAUL OJEDA,-66.35666667,-33.27222222,710,San Luis,PUBLICO,Nacional,SAN LUIS
ULL,Helipuerto,RÍO CULLEN/TOTAL AUSTRAL,-68.355331,-52.893494,16,Cullen,PRIVADO,Nacional,TIERRA DEL FUEGO ANTÁRTIDA E ISLAS DEL ATLÁNTICO SUR
UNE,Aeródromo,FUNES/ALAGRO FUMIGACIONES,-60.8436,-32.88841,35,Funes,PRIVADO,Nacional,SANTA FÉ
UPE,Aeródromo,SANTA FÉ/GUADALUPE,-60.67690162,-31.59274469,18,Santa Fé,PRIVADO,Nacional,SANTA FÉ
URD,Aeródromo,URDINARRAIN,-58.8989,-32.69589,66,Urdinarrain,PUBLICO,Nacional,ENTRE RÍOS
URL,Aeródromo,URIBURU/ESTANCIA LOS ROBLES,-63.76652,-36.55297,137,Uriburu,PRIVADO,Nacional,LA PAMPA
URO,Aeródromo,PEDRO LURO,-62.675,-39.45583333,27,Pedro Luro,PUBLICO,Nacional,BUENOS AIRES
USU,Aeródromo,USHUAIA/MALVINAS ARGENTINAS,-68.29555556,-54.84333333,31,Ushuaia,PUBLICO,Internacional,TIERRA DEL FUEGO ANTÁRTIDA E ISLAS DEL ATLÁNTICO SUR
VAL,Aeródromo,VALCHETA,-66.1573,-40.69909,192,Valcheta,PUBLICO,Nacional,RÍO NEGRO
VAN,Aeródromo,VILLA ANGELA,-60.68196,-27.59505,75,Villa Angela,PUBLICO,Nacional,CHACO
VAY,Aeródromo,VILLA AMANCAY/HALLPA HUAYRA,-64.54027778,-32.20805556,557,Villa Amancay,PRIVADO,Nacional,CÓRDOBA
VCA,Aeródromo,VICTORICA,-65.41617,-36.20694,311,Victorica,PRIVADO,Nacional,LA PAMPA
VCC,Aeródromo,VILLA CAÑAS/S. A. MIGUEL A. CARDONE,-61.63335,-33.96101,103,Villa Cañas,PUBLICO,Nacional,SANTA FÉ
VDA,Aeródromo,VEDIA,-61.48972222,-34.48611111,89,Vedia,PUBLICO,Nacional,BUENOS AIRES
VDL,Aeródromo,CORONEL VIDAL,-57.76722222,-37.46777778,26,Coronel Vidal,PUBLICO,Nacional,BUENOS AIRES
VDO,Aeródromo,EL CORCOVADO,-71.48582,-43.53287,600,,PRIVADO,Nacional,CHUBUT
VDR,Aeródromo,VILLA DEL ROSARIO,-63.53888889,-31.58055556,253,Villa del Rosario,PUBLICO,Nacional,CÓRDOBA
VEC,Aeródromo,CORCOVADO/EA. CARIDAD,-71.24555556,-43.72138889,740,Corcovado,PRIVADO,Nacional,CHUBUT
VER,Aeródromo,VERA,-60.2264,-29.46835,58,Vera,PUBLICO,Nacional,SANTA FÉ
VEZ,Aeródromo,GALVEZ,-61.17777778,-32.03527778,41,Galvez,PUBLICO,Nacional,SANTA FÉ
VGB,Aeródromo,VILLA GENERAL BELGRANO,-64.56444444,-31.96444444,840,Villa General Belgrano,PUBLICO,Nacional,CÓRDOBA
VIC,Aeródromo,VICTORIA,-60.1894,-32.5845,12,Victoria,PUBLICO,Nacional,ENTRE RÍOS
VIE,Aeródromo,VIEDMA/GOBERNADOR CASTELLO,-62.99666667,-40.87027778,6,Viedma,PUBLICO,Nacional,RÍO NEGRO
VIG,Aeródromo,VILLAGUAY,-59.07305556,-31.85055556,40,Villaguay,PRIVADO,Nacional,ENTRE RÍOS
VIT,Aeródromo,SANTA VICTORIA,-62.71372,-22.28551,280,Santa Victoria,PRIVADO,Nacional,SALTA
VLL,Aeródromo,VILLAGUAY/EL MALAGUEÑO,-59.41059,-31.69211,55,Villaguay,PRIVADO,Nacional,ENTRE RÍOS
VMA,Aeródromo,VICUÑA MACKENNA/DON ÁNGEL,-64.40775,-33.93823,228,Vicuña Mackenna,PRIVADO,Nacional,CÓRDOBA
VMB,Aeródromo,VICUÑA MACKENNA/BENEFICIOS S.R.L.,-64.41509,-33.93757,241,Vicuña Mackenna,PRIVADO,Nacional,CÓRDOBA
VMC,Aeródromo,VICUÑA MACKENNA/COMEQUECHEN,-64.41595,-33.934,243,Vicuña Mackenna,PRIVADO,Nacional,CÓRDOBA
VMK,Aeródromo,VICUÑA MACKENNA/MARTÍN FIERRO,-64.37117,-33.94302,230,Vicuña Mackenna,PRIVADO,Nacional,CÓRDOBA
VMR,Aeródromo,VILLA MARIA/AEROPUERTO REGIONAL,-63.22654,-32.32006,202,Villa María,PUBLICO,Nacional,CÓRDOBA
VMT,Aeródromo,VILLA MERCEDES/LAS TOTORITAS,-65.32472222,-33.84472222,448,Villa Mercedes,PRIVADO,Nacional,SAN LUIS
VNA,Aeródromo,VERÓNICA,-57.36722222,-35.39944444,17,Verónica,PUBLICO,Nacional,BUENOS AIRES
VNO,Aeródromo,VENADO TUERTO,-61.95515,-33.67977,112,Venado Tuerto,PUBLICO,Nacional,SANTA FÉ
VNR,Aeródromo,VILLA NUEVA/RAIG SA,-63.28930556,-32.43816667,206,Villa María,PRIVADO,Nacional,CÓRDOBA
VNS,Aeródromo,VILLA NUEVA/SUAREZ AVIACIÓN,-63.30222222,-32.42694444,207,Villa Nueva,PRIVADO,Nacional,CÓRDOBA
VPO,Aeródromo,VILLA OCAMPO,-59.32612,-28.49598,49,Villa Ocampo,PUBLICO,Nacional,SANTA FÉ
VRG,Aeródromo,VILLA REGINA,-67.07805556,-39.07472222,285,Villa Regina,PUBLICO,Nacional,RÍO NEGRO
VRU,Aeródromo,VILLA RUMIPAL/PRIMER TENIENTE MARIO NIVOLI,-64.48888889,-32.18416667,666,Villa Rumipal,PUBLICO,Nacional,CÓRDOBA
VTE,Aeródromo,SAN VICENTE,-54.48789,-26.95314,550,San Vicente,PUBLICO,Nacional,MISIONES
VTO,Aeródromo,VENADO TUERTO/LA SIESTA,-62.06369,-33.69132,112,Venado Tuerto,PRIVADO,Nacional,SANTA FÉ
VTS,Aeródromo,VENADO TUERTO/SAVESA,-61.97609,-33.77872,110,Venado Tuerto,PRIVADO,Nacional,SANTA FÉ
YOP,Aeródromo,TRES ARROYOS/PETRAZZINI,-60.27611111,-38.34777778,107,Tres Arroyos,PRIVADO,Nacional,BUENOS AIRES
YOS,Aeródromo,TRES ARROYOS,-60.3275,-38.38555556,122,Tres Arroyos,PUBLICO,Nacional,BUENOS AIRES
YPY,Aeródromo,YAPEYÚ,-56.79573,-29.35877,53,Yapeyú,PRIVADO,Nacional,CORRIENTES
ZAP,Aeródromo,ZAPALA,-70.11346389,-38.97588611,1048,Zapala,PUBLICO,Nacional,NEUQUÉN
ZLM,Aeródromo,BELL VILLE/LA ZULEMA,-62.67138889,-32.48972222,129,Bell Ville,PRIVADO,Nacional,CÓRDOBA
ZUL,Aeródromo,AZUL,-59.8808,-36.83675,146,Azul,PUBLICO,Nacional,BUENOS AIRES
